__time,/uav/cv/swing_angle/world_frame/cartesian/header/stamp/nanosec,/uav/cv/swing_angle/world_frame/cartesian/header/stamp/sec,/uav/cv/swing_angle/world_frame/cartesian/vector/x,/uav/cv/swing_angle/world_frame/cartesian/vector/y,/uav/cv/swing_angle/world_frame/cartesian/vector/z,/uav/eso/swing_angle/world_frame/cartesian/header/stamp/nanosec,/uav/eso/swing_angle/world_frame/cartesian/header/stamp/sec,/uav/eso/swing_angle/world_frame/cartesian/vector/x,/uav/eso/swing_angle/world_frame/cartesian/vector/y,/uav/eso/swing_angle/world_frame/cartesian/vector/z,/uav/eso_fusion/swing_angle/world_frame/cartesian/header/stamp/nanosec,/uav/eso_fusion/swing_angle/world_frame/cartesian/header/stamp/sec,/uav/eso_fusion/swing_angle/world_frame/cartesian/vector/x,/uav/eso_fusion/swing_angle/world_frame/cartesian/vector/y,/uav/eso_fusion/swing_angle/world_frame/cartesian/vector/z,/uav/truth/swing_angle/world_frame/cartesian/header/stamp/nanosec,/uav/truth/swing_angle/world_frame/cartesian/header/stamp/sec,/uav/truth/swing_angle/world_frame/cartesian/vector/x,/uav/truth/swing_angle/world_frame/cartesian/vector/y,/uav/truth/swing_angle/world_frame/cartesian/vector/z
1776350224.796164,,,,,,,,,,,,,,,,915000000.000000000,158.000000000,2.634719695,17.865911559,1.097259220
1776350224.798049,,,,,,,,,,,798004355.000000000,1776350224.000000000,1.933099461,19.487955431,0.000000000,,,,,
1776350224.798509,,,,,,798455446.000000000,1776350224.000000000,2.320515251,14.677083817,0.000000000,,,,,,,,,,
1776350224.801052,,,,,,,,,,,,,,,,920000000.000000000,158.000000000,2.661537627,18.717813073,1.097111901
1776350224.803050,,,,,,,,,,,803002893.000000000,1776350224.000000000,1.884844486,19.982734252,0.000000000,,,,,
1776350224.803415,,,,,,803369033.000000000,1776350224.000000000,2.290380092,15.182039082,0.000000000,,,,,,,,,,
1776350224.806301,,,,,,,,,,,,,,,,925000000.000000000,158.000000000,2.687633251,19.566040345,1.096957410
1776350224.808066,,,,,,,,,,,808002342.000000000,1776350224.000000000,1.841018441,20.340927216,0.000000000,,,,,
1776350224.808425,,,,,,808373281.000000000,1776350224.000000000,2.262045226,15.587929322,0.000000000,,,,,,,,,,
1776350224.811116,,,,,,,,,,,,,,,,930000000.000000000,158.000000000,2.713034498,20.410546114,1.096795479
1776350224.813049,,,,,,,,,,,813000338.000000000,1776350224.000000000,1.823143393,21.250662886,0.000000000,,,,,
1776350224.813414,,,,,,813368452.000000000,1776350224.000000000,2.271091325,16.943950307,0.000000000,,,,,,,,,,
1776350224.816207,,,,,,,,,,,,,,,,935000000.000000000,158.000000000,2.737811247,21.251284372,1.096625765
1776350224.818053,,,,,,,,,,,817977836.000000000,1776350224.000000000,1.817314674,22.313660435,0.000000000,,,,,
1776350224.818435,,,,,,818379333.000000000,1776350224.000000000,2.278386219,18.115938122,0.000000000,,,,,,,,,,
1776350224.822010,,,,,,,,,,,,,,,,940000000.000000000,158.000000000,2.762019393,22.088211585,1.096447883
1776350224.823082,,,,,,,,,,,823013453.000000000,1776350224.000000000,1.817998361,23.343521130,0.000000000,,,,,
1776350224.823434,,,,,,823381297.000000000,1776350224.000000000,2.284190359,19.121759421,0.000000000,,,,,,,,,,
1776350224.826126,,,,,,,,,,,,,,,,945000000.000000000,158.000000000,2.785647948,22.921260913,1.096261533
1776350224.828045,,,,,,,,,,,828001551.000000000,1776350224.000000000,1.821733481,24.258999050,0.000000000,,,,,
1776350224.828403,,,,,,828364886.000000000,1776350224.000000000,2.288841133,19.977804828,0.000000000,,,,,,,,,,
1776350224.831252,,,,,,,,,,,,,,,,950000000.000000000,158.000000000,2.808622596,23.750344653,1.096066528
1776350224.833050,,,,,,,,,,,833005168.000000000,1776350224.000000000,1.825653932,25.029952387,0.000000000,,,,,
1776350224.833424,,,,,,833371719.000000000,1776350224.000000000,2.292638724,20.699121591,0.000000000,,,,,,,,,,
1776350224.836200,,,,,,,,,,,,,,,,955000000.000000000,158.000000000,2.830863592,24.575368052,1.095862715
1776350224.838056,,,,,,,,,,,838004446.000000000,1776350224.000000000,1.829388914,25.651155446,0.000000000,,,,,
1776350224.838398,,,,,,838352312.000000000,1776350224.000000000,2.295739075,21.299488773,0.000000000,,,,,,,,,,
1776350224.841447,,,,,,,,,,,,,,,,960000000.000000000,158.000000000,2.852338635,25.396246072,1.095649877
1776350224.843062,,,,,,,,,,,843008183.000000000,1776350224.000000000,1.833832929,26.128999185,0.000000000,,,,,
1776350224.843430,,,,,,843378071.000000000,1776350224.000000000,2.298280560,21.791522038,0.000000000,,,,,,,,,,
1776350224.846824,,,,,,,,,,,,,,,,965000000.000000000,158.000000000,2.873082400,26.212895153,1.095427722
1776350224.848066,,,,,,,,,,,848006570.000000000,1776350224.000000000,1.839014819,26.474748366,0.000000000,,,,,
1776350224.848499,960000000.000000000,158.000000000,3.042895089,25.729947337,1.000000000,,,,,,,,,,,,,,,
1776350224.848520,,,,,,848372140.000000000,1776350224.000000000,2.300468383,22.186770088,0.000000000,,,,,,,,,,
1776350224.851110,,,,,,,,,,,,,,,,970000000.000000000,158.000000000,2.893163085,27.025235539,1.095195892
1776350224.853045,,,,,,,,,,,853001311.000000000,1776350224.000000000,1.868633378,27.353135518,0.000000000,,,,,
1776350224.853417,,,,,,853368623.000000000,1776350224.000000000,2.340885559,23.498888148,0.000000000,,,,,,,,,,
1776350224.856335,,,,,,,,,,,,,,,,975000000.000000000,158.000000000,2.912622981,27.833185277,1.094954027
1776350224.858101,,,,,,,,,,,858022120.000000000,1776350224.000000000,1.907786175,28.379475652,0.000000000,,,,,
1776350224.858457,,,,,,858396626.000000000,1776350224.000000000,2.377311690,24.632453371,0.000000000,,,,,,,,,,
1776350224.861518,,,,,,,,,,,,,,,,980000000.000000000,158.000000000,2.931436372,28.636642428,1.094701879
1776350224.863085,,,,,,,,,,,863011340.000000000,1776350224.000000000,1.950449978,29.373916340,0.000000000,,,,,
1776350224.863436,,,,,,863376869.000000000,1776350224.000000000,2.410135107,25.604850695,0.000000000,,,,,,,,,,
1776350224.866132,,,,,,,,,,,,,,,,985000000.000000000,158.000000000,2.949528306,29.435480715,1.094439346
1776350224.868054,,,,,,,,,,,868006080.000000000,1776350224.000000000,1.992851368,30.257860372,0.000000000,,,,,
1776350224.868487,,,,,,868371479.000000000,1776350224.000000000,2.439806879,26.432038769,0.000000000,,,,,,,,,,
1776350224.871072,,,,,,,,,,,,,,,,990000000.000000000,158.000000000,2.966818070,30.229571232,1.094166368
1776350224.873052,,,,,,,,,,,873002493.000000000,1776350224.000000000,2.032552866,31.002272134,0.000000000,,,,,
1776350224.873417,,,,,,873369335.000000000,1776350224.000000000,2.466716520,27.128651659,0.000000000,,,,,,,,,,
1776350224.876272,,,,,,,,,,,,,,,,995000000.000000000,158.000000000,2.983283054,31.018793991,1.093882812
1776350224.878058,,,,,,,,,,,878004497.000000000,1776350224.000000000,2.070167360,31.602109397,0.000000000,,,,,
1776350224.878406,,,,,,878365999.000000000,1776350224.000000000,2.491134905,27.708087368,0.000000000,,,,,,,,,,
1776350224.881148,,,,,,,,,,,,,,,,0.000000000,159.000000000,2.998958541,31.803041324,1.093588450
1776350224.883061,,,,,,,,,,,883006871.000000000,1776350224.000000000,2.104597329,32.063564489,0.000000000,,,,,
1776350224.883397,,,,,,883357753.000000000,1776350224.000000000,2.513386301,28.182605220,0.000000000,,,,,,,,,,
1776350224.886112,,,,,,,,,,,,,,,,5000000.000000000,159.000000000,3.013888837,32.582199115,1.093283055
1776350224.888049,,,,,,,,,,,887997985.000000000,1776350224.000000000,2.137226727,32.397654243,0.000000000,,,,,
1776350224.888455,,,,,,888372391.000000000,1776350224.000000000,2.533684639,28.563422286,0.000000000,,,,,,,,,,
1776350224.888783,0.000000000,159.000000000,3.309452970,32.127582761,1.000000000,,,,,,,,,,,,,,,
1776350224.891130,,,,,,,,,,,,,,,,10000000.000000000,159.000000000,3.028085561,33.356148200,1.092966443
1776350224.893054,,,,,,,,,,,893002774.000000000,1776350224.000000000,2.192996970,33.240563786,0.000000000,,,,,
1776350224.893408,,,,,,893356050.000000000,1776350224.000000000,2.592299551,29.820442808,0.000000000,,,,,,,,,,
1776350224.896309,,,,,,,,,,,,,,,,15000000.000000000,159.000000000,3.041518737,34.124763891,1.092638489
1776350224.898105,,,,,,,,,,,898026549.000000000,1776350224.000000000,2.256466077,34.224353177,0.000000000,,,,,
1776350224.898466,,,,,,898396426.000000000,1776350224.000000000,2.645347631,30.905841488,0.000000000,,,,,,,,,,
1776350224.901348,,,,,,,,,,,,,,,,20000000.000000000,159.000000000,3.054130710,34.887914243,1.092299135
1776350224.903059,,,,,,,,,,,903001642.000000000,1776350224.000000000,2.321094503,35.177065980,0.000000000,,,,,
1776350224.903431,,,,,,903372281.000000000,1776350224.000000000,2.693321263,31.836379470,0.000000000,,,,,,,,,,
1776350224.906160,,,,,,,,,,,,,,,,25000000.000000000,159.000000000,3.065876296,35.645456655,1.091948383
1776350224.908054,,,,,,,,,,,908000119.000000000,1776350224.000000000,2.383437391,36.023641559,0.000000000,,,,,
1776350224.908434,,,,,,908370688.000000000,1776350224.000000000,2.736742159,32.627440164,0.000000000,,,,,,,,,,
1776350224.911131,,,,,,,,,,,,,,,,30000000.000000000,159.000000000,3.076740763,36.397245128,1.091586244
1776350224.913047,,,,,,,,,,,913000179.000000000,1776350224.000000000,2.441136283,36.736379048,0.000000000,,,,,
1776350224.913429,,,,,,913372401.000000000,1776350224.000000000,2.776092000,33.293129562,0.000000000,,,,,,,,,,
1776350224.916072,,,,,,,,,,,,,,,,35000000.000000000,159.000000000,3.086725292,37.143144747,1.091212680
1776350224.918031,,,,,,,,,,,917978258.000000000,1776350224.000000000,2.493952732,37.310604030,0.000000000,,,,,
1776350224.918419,,,,,,918357563.000000000,1776350224.000000000,2.811732804,33.846356805,0.000000000,,,,,,,,,,
1776350224.921129,,,,,,,,,,,,,,,,40000000.000000000,159.000000000,3.095821153,37.883025559,1.090827629
1776350224.923054,,,,,,,,,,,923008745.000000000,1776350224.000000000,2.542906920,37.752424766,0.000000000,,,,,
1776350224.923408,,,,,,923373594.000000000,1776350224.000000000,2.843997391,34.298936064,0.000000000,,,,,,,,,,
1776350224.926322,,,,,,,,,,,,,,,,45000000.000000000,159.000000000,3.103997299,38.616751954,1.090431074
1776350224.927611,40000000.000000000,159.000000000,3.318324601,38.266437986,1.000000000,,,,,,,,,,,,,,,
1776350224.928083,,,,,,,,,,,928016240.000000000,1776350224.000000000,2.589031350,38.670753675,0.000000000,,,,,
1776350224.928420,,,,,,928370328.000000000,1776350224.000000000,2.874597346,35.582513077,0.000000000,,,,,,,,,,
1776350224.931176,,,,,,,,,,,,,,,,50000000.000000000,159.000000000,3.111208404,39.344186589,1.090023016
1776350224.933048,,,,,,,,,,,933001712.000000000,1776350224.000000000,2.631084388,39.712356937,0.000000000,,,,,
1776350224.933431,,,,,,933378573.000000000,1776350224.000000000,2.902417562,36.692534629,0.000000000,,,,,,,,,,
1776350224.936623,,,,,,,,,,,,,,,,55000000.000000000,159.000000000,3.117428955,40.065197565,1.089603422
1776350224.938076,,,,,,,,,,,938016681.000000000,1776350224.000000000,2.669354160,40.712648160,0.000000000,,,,,
1776350224.938426,,,,,,938374896.000000000,1776350224.000000000,2.927704791,37.645903148,0.000000000,,,,,,,,,,
1776350224.941277,,,,,,,,,,,,,,,,60000000.000000000,159.000000000,3.122641791,40.779646092,1.089172292
1776350224.943066,,,,,,,,,,,943008335.000000000,1776350224.000000000,2.705030510,41.600452459,0.000000000,,,,,
1776350224.943430,,,,,,943374866.000000000,1776350224.000000000,2.950685795,38.458126918,0.000000000,,,,,,,,,,
1776350224.946081,,,,,,,,,,,,,,,,65000000.000000000,159.000000000,3.126824505,41.487381771,1.088729713
1776350224.948050,,,,,,,,,,,947997945.000000000,1776350224.000000000,2.738038042,42.350194473,0.000000000,,,,,
1776350224.948417,,,,,,948369256.000000000,1776350224.000000000,2.971642495,39.143434732,0.000000000,,,,,,,,,,
1776350224.951226,,,,,,,,,,,,,,,,70000000.000000000,159.000000000,3.129936625,42.188252244,1.088275815
1776350224.953039,,,,,,,,,,,952998316.000000000,1776350224.000000000,2.767953354,42.958120791,0.000000000,,,,,
1776350224.953394,,,,,,953351793.000000000,1776350224.000000000,2.990812476,39.714863023,0.000000000,,,,,,,,,,
1776350224.956152,,,,,,,,,,,,,,,,75000000.000000000,159.000000000,3.131928475,42.882113344,1.087810703
1776350224.958061,,,,,,,,,,,958005069.000000000,1776350224.000000000,2.795193911,43.430809883,0.000000000,,,,,
1776350224.958421,,,,,,958368645.000000000,1776350224.000000000,3.008352525,40.184329950,0.000000000,,,,,,,,,,
1776350224.961039,,,,,,,,,,,,,,,,80000000.000000000,159.000000000,3.132737912,43.568821306,1.087334491
1776350224.963054,,,,,,,,,,,963007434.000000000,1776350224.000000000,2.820993572,43.779255316,0.000000000,,,,,
1776350224.963420,,,,,,963373354.000000000,1776350224.000000000,3.024406692,40.562734381,0.000000000,,,,,,,,,,
1776350224.966441,,,,,,,,,,,,,,,,85000000.000000000,159.000000000,3.132314136,44.248231964,1.086847288
1776350224.967656,80000000.000000000,159.000000000,3.556039581,43.895862744,1.000000000,,,,,,,,,,,,,,,
1776350224.968054,,,,,,,,,,,967999569.000000000,1776350224.000000000,2.868571244,44.564776496,0.000000000,,,,,
1776350224.968419,,,,,,968370108.000000000,1776350224.000000000,3.074841405,41.704456559,0.000000000,,,,,,,,,,
1776350224.971062,,,,,,,,,,,,,,,,90000000.000000000,159.000000000,3.130632895,44.920206320,1.086349148
1776350224.973055,,,,,,,,,,,973004268.000000000,1776350224.000000000,2.923014962,45.464711377,0.000000000,,,,,
1776350224.973411,,,,,,973369547.000000000,1776350224.000000000,3.120561814,42.688347624,0.000000000,,,,,,,,,,
1776350224.976142,,,,,,,,,,,,,,,,95000000.000000000,159.000000000,3.127683463,45.584611081,1.085840087
1776350224.978071,,,,,,,,,,,978006482.000000000,1776350224.000000000,2.978701509,46.328861801,0.000000000,,,,,
1776350224.978420,,,,,,978369226.000000000,1776350224.000000000,3.161963258,43.529935969,0.000000000,,,,,,,,,,
1776350224.981388,,,,,,,,,,,,,,,,100000000.000000000,159.000000000,3.123439048,46.241303785,1.085320198
1776350224.983072,,,,,,,,,,,983010920.000000000,1776350224.000000000,3.031627560,47.092063933,0.000000000,,,,,
1776350224.983417,,,,,,983374676.000000000,1776350224.000000000,3.199482094,44.243471407,0.000000000,,,,,,,,,,
1776350224.986153,,,,,,,,,,,,,,,,105000000.000000000,159.000000000,3.117848945,46.890131952,1.084789666
1776350224.988046,,,,,,,,,,,988000210.000000000,1776350224.000000000,3.081339111,47.731138445,0.000000000,,,,,
1776350224.988492,,,,,,988454637.000000000,1776350224.000000000,3.233444637,44.842000903,0.000000000,,,,,,,,,,
1776350224.991005,,,,,,,,,,,,,,,,110000000.000000000,159.000000000,3.110836700,47.530942541,1.084248710
1776350224.993044,,,,,,,,,,,993001783.000000000,1776350224.000000000,3.126688574,48.242673054,0.000000000,,,,,
1776350224.993429,,,,,,993372973.000000000,1776350224.000000000,3.264207927,45.337483717,0.000000000,,,,,,,,,,
1776350224.996091,,,,,,,,,,,,,,,,115000000.000000000,159.000000000,3.102333981,48.163591568,1.083697480
1776350224.998055,,,,,,,,,,,998005881.000000000,1776350224.000000000,3.167800384,48.632697340,0.000000000,,,,,
1776350224.998428,,,,,,998369106.000000000,1776350224.000000000,3.292041704,45.740844430,0.000000000,,,,,,,,,,
1776350225.001163,,,,,,,,,,,,,,,,120000000.000000000,159.000000000,3.092277256,48.787930525,1.083136137
1776350225.003240,,,,,,,,,,,3184017.000000000,1776350225.000000000,3.205831758,48.911235885,0.000000000,,,,,
1776350225.003424,,,,,,3373214.000000000,1776350225.000000000,3.317271185,46.062072919,0.000000000,,,,,,,,,,
1776350225.006212,,,,,,,,,,,,,,,,125000000.000000000,159.000000000,3.080616854,49.403807408,1.082564873
1776350225.008071,,,,,,,,,,,8001383.000000000,1776350225.000000000,3.240725436,49.089622866,0.000000000,,,,,
1776350225.008440,,,,,,8370268.000000000,1776350225.000000000,3.340114741,46.310283609,0.000000000,,,,,,,,,,
1776350225.008568,120000000.000000000,159.000000000,3.488356031,49.075981394,1.000000000,,,,,,,,,,,,,,,
1776350225.011345,,,,,,,,,,,,,,,,130000000.000000000,159.000000000,3.067301155,50.011072060,1.081983877
1776350225.013064,,,,,,,,,,,13009097.000000000,1776350225.000000000,3.265395947,49.684485727,0.000000000,,,,,
1776350225.013420,,,,,,13374176.000000000,1776350225.000000000,3.350684637,47.270817098,0.000000000,,,,,,,,,,
1776350225.016254,,,,,,,,,,,,,,,,135000000.000000000,159.000000000,3.052273400,50.609584148,1.081393286
1776350225.018107,,,,,,,,,,,18025098.000000000,1776350225.000000000,3.284320572,50.398258249,0.000000000,,,,,
1776350225.018451,,,,,,18389685.000000000,1776350225.000000000,3.360341947,48.095255280,0.000000000,,,,,,,,,,
1776350225.021576,,,,,,,,,,,,,,,,140000000.000000000,159.000000000,3.035468423,51.199192659,1.080793309
1776350225.023068,,,,,,,,,,,23009999.000000000,1776350225.000000000,3.300622279,51.091883455,0.000000000,,,,,
1776350225.023443,,,,,,23375839.000000000,1776350225.000000000,3.369162816,48.797154160,0.000000000,,,,,,,,,,
1776350225.026185,,,,,,,,,,,,,,,,145000000.000000000,159.000000000,3.016820442,51.779741748,1.080184215
1776350225.028248,,,,,,,,,,,28201560.000000000,1776350225.000000000,3.315241223,51.704471842,0.000000000,,,,,
1776350225.028398,,,,,,28367173.000000000,1776350225.000000000,3.377286737,49.388949676,0.000000000,,,,,,,,,,
1776350225.031229,,,,,,,,,,,,,,,,150000000.000000000,159.000000000,2.996257801,52.351072908,1.079566285
1776350225.033053,,,,,,,,,,,33006913.000000000,1776350225.000000000,3.328034216,52.213584331,0.000000000,,,,,
1776350225.033441,,,,,,33369888.000000000,1776350225.000000000,3.384830366,49.882020852,0.000000000,,,,,,,,,,
1776350225.036305,,,,,,,,,,,,,,,,155000000.000000000,159.000000000,2.973717096,52.913039598,1.078939722
1776350225.038056,,,,,,,,,,,38004639.000000000,1776350225.000000000,3.339519300,52.615323002,0.000000000,,,,,
1776350225.038435,,,,,,38369187.000000000,1776350225.000000000,3.391834716,50.286772725,0.000000000,,,,,,,,,,
1776350225.041342,,,,,,,,,,,,,,,,160000000.000000000,159.000000000,2.949131427,53.465486631,1.078304778
1776350225.043073,,,,,,,,,,,43006493.000000000,1776350225.000000000,3.350742100,52.914449238,0.000000000,,,,,
1776350225.043455,,,,,,43403001.000000000,1776350225.000000000,3.398337986,50.612716036,0.000000000,,,,,,,,,,
1776350225.046253,,,,,,,,,,,,,,,,165000000.000000000,159.000000000,2.922433405,54.008255089,1.077661754
1776350225.048082,,,,,,,,,,,48006583.000000000,1776350225.000000000,3.361621448,53.119326536,0.000000000,,,,,
1776350225.048414,,,,,,48368235.000000000,1776350225.000000000,3.404439036,50.868544331,0.000000000,,,,,,,,,,
1776350225.049177,160000000.000000000,159.000000000,3.335413300,53.846721791,1.000000000,,,,,,,,,,,,,,,
1776350225.051529,,,,,,,,,,,,,,,,170000000.000000000,159.000000000,2.893552596,54.541182691,1.077010996
1776350225.053053,,,,,,,,,,,53005681.000000000,1776350225.000000000,3.356663088,53.705036144,0.000000000,,,,,
1776350225.053418,,,,,,53376952.000000000,1776350225.000000000,3.387275614,51.777798434,0.000000000,,,,,,,,,,
1776350225.056235,,,,,,,,,,,,,,,,175000000.000000000,159.000000000,2.862422745,55.064124008,1.076352740
1776350225.058090,,,,,,,,,,,58021071.000000000,1776350225.000000000,3.345180422,54.397235540,0.000000000,,,,,
1776350225.058457,,,,,,58389756.000000000,1776350225.000000000,3.372134734,52.559353140,0.000000000,,,,,,,,,,
1776350225.061191,,,,,,,,,,,,,,,,180000000.000000000,159.000000000,2.828983712,55.576917489,1.075687304
1776350225.063075,,,,,,,,,,,63012765.000000000,1776350225.000000000,3.332330538,55.067730122,0.000000000,,,,,
1776350225.063419,,,,,,63371832.000000000,1776350225.000000000,3.358833110,53.225916225,0.000000000,,,,,,,,,,
1776350225.066043,,,,,,,,,,,,,,,,185000000.000000000,159.000000000,2.793166434,56.079394736,1.075015075
1776350225.068056,,,,,,,,,,,68002225.000000000,1776350225.000000000,3.320075433,55.660804529,0.000000000,,,,,
1776350225.068414,,,,,,68373505.000000000,1776350225.000000000,3.347254851,53.789128868,0.000000000,,,,,,,,,,
1776350225.071104,,,,,,,,,,,,,,,,190000000.000000000,159.000000000,2.754882568,56.571388806,1.074336442
1776350225.073068,,,,,,,,,,,73007385.000000000,1776350225.000000000,3.308746150,56.155938360,0.000000000,,,,,
1776350225.073449,,,,,,73377413.000000000,1776350225.000000000,3.337285835,54.259666304,0.000000000,,,,,,,,,,
1776350225.075995,,,,,,,,,,,,,,,,195000000.000000000,159.000000000,2.714046971,57.052752468,1.073651652
1776350225.078054,,,,,,,,,,,78002255.000000000,1776350225.000000000,3.298837481,56.549768871,0.000000000,,,,,
1776350225.078412,,,,,,78363947.000000000,1776350225.000000000,3.328768586,54.647283320,0.000000000,,,,,,,,,,
1776350225.081179,,,,,,,,,,,,,,,,200000000.000000000,159.000000000,2.670575588,57.523321724,1.072961048
1776350225.083095,,,,,,,,,,,83006684.000000000,1776350225.000000000,3.291084300,56.846904717,0.000000000,,,,,
1776350225.083421,,,,,,83374417.000000000,1776350225.000000000,3.321607908,54.960904344,0.000000000,,,,,,,,,,
1776350225.086220,,,,,,,,,,,,,,,,205000000.000000000,159.000000000,2.624394178,57.982923613,1.072265072
1776350225.088069,,,,,,,,,,,88008527.000000000,1776350225.000000000,3.285290752,57.055259167,0.000000000,,,,,
1776350225.088696,200000000.000000000,159.000000000,3.095482616,57.932517062,1.000000000,,,,,,,,,,,,,,,
1776350225.088717,,,,,,88372303.000000000,1776350225.000000000,3.315663960,55.208670031,0.000000000,,,,,,,,,,
1776350225.091140,,,,,,,,,,,,,,,,210000000.000000000,159.000000000,2.575434108,58.431380163,1.071564234
1776350225.093056,,,,,,,,,,,93006584.000000000,1776350225.000000000,3.257408647,57.582615000,0.000000000,,,,,
1776350225.093421,,,,,,93371111.000000000,1776350225.000000000,3.274864207,56.010882910,0.000000000,,,,,,,,,,
1776350225.096247,,,,,,,,,,,,,,,,215000000.000000000,159.000000000,2.523642375,58.868534534,1.070858927
1776350225.098099,,,,,,,,,,,98022614.000000000,1776350225.000000000,3.221694448,58.194784176,0.000000000,,,,,
1776350225.098458,,,,,,98386941.000000000,1776350225.000000000,3.238732293,56.699150521,0.000000000,,,,,,,,,,
1776350225.101286,,,,,,,,,,,,,,,,220000000.000000000,159.000000000,2.468961125,59.294212884,1.070149632
1776350225.103079,,,,,,,,,,,103012365.000000000,1776350225.000000000,3.185346233,58.782772137,0.000000000,,,,,
1776350225.103430,,,,,,103371282.000000000,1776350225.000000000,3.206846515,57.284888537,0.000000000,,,,,,,,,,
1776350225.106105,,,,,,,,,,,,,,,,225000000.000000000,159.000000000,2.411322462,59.708238391,1.069436884
1776350225.108047,,,,,,,,,,,107999440.000000000,1776350225.000000000,3.151479684,59.299407524,0.000000000,,,,,
1776350225.108422,,,,,,108371993.000000000,1776350225.000000000,3.178849939,57.778556099,0.000000000,,,,,,,,,,
1776350225.111214,,,,,,,,,,,,,,,,230000000.000000000,159.000000000,2.350656416,60.110437889,1.068721186
1776350225.113058,,,,,,,,,,,113004340.000000000,1776350225.000000000,3.120919268,59.727896805,0.000000000,,,,,
1776350225.113424,,,,,,113372214.000000000,1776350225.000000000,3.154417258,58.189720274,0.000000000,,,,,,,,,,
1776350225.116108,,,,,,,,,,,,,,,,235000000.000000000,159.000000000,2.286929430,60.500662482,1.068002843
1776350225.118055,,,,,,,,,,,118007596.000000000,1776350225.000000000,3.094164979,60.065947979,0.000000000,,,,,
1776350225.118468,,,,,,118377534.000000000,1776350225.000000000,3.133209941,58.527135016,0.000000000,,,,,,,,,,
1776350225.121257,,,,,,,,,,,,,,,,240000000.000000000,159.000000000,2.220130311,60.878740778,1.067282283
1776350225.123073,,,,,,,,,,,123016984.000000000,1776350225.000000000,3.071509098,60.318131451,0.000000000,,,,,
1776350225.123425,,,,,,123378556.000000000,1776350225.000000000,3.114917008,58.798798254,0.000000000,,,,,,,,,,
1776350225.126224,,,,,,,,,,,,,,,,245000000.000000000,159.000000000,2.150242252,61.244488168,1.066560094
1776350225.128090,,,,,,,,,,,128033154.000000000,1776350225.000000000,3.052627199,60.491551493,0.000000000,,,,,
1776350225.128426,,,,,,128374468.000000000,1776350225.000000000,3.099275094,59.012028638,0.000000000,,,,,,,,,,
1776350225.128580,240000000.000000000,159.000000000,2.446958692,61.246621780,1.000000000,,,,,,,,,,,,,,,
1776350225.131180,,,,,,,,,,,,,,,,250000000.000000000,159.000000000,2.077212083,61.597711447,1.065837000
1776350225.133067,,,,,,,,,,,133006875.000000000,1776350225.000000000,2.973854498,60.917962910,0.000000000,,,,,
1776350225.133434,,,,,,133379828.000000000,1776350225.000000000,2.988755929,59.670592144,0.000000000,,,,,,,,,,
1776350225.136191,,,,,,,,,,,,,,,,255000000.000000000,159.000000000,2.000965116,61.938248258,1.065113541
1776350225.138093,,,,,,,,,,,138020240.000000000,1776350225.000000000,2.873501207,61.408179144,0.000000000,,,,,
1776350225.138448,,,,,,138385519.000000000,1776350225.000000000,2.890279697,60.232908587,0.000000000,,,,,,,,,,
1776350225.141481,,,,,,,,,,,,,,,,260000000.000000000,159.000000000,1.921430725,62.265914883,1.064390362
1776350225.143079,,,,,,,,,,,143011905.000000000,1776350225.000000000,2.770232595,61.874452816,0.000000000,,,,,
1776350225.143441,,,,,,143383566.000000000,1776350225.000000000,2.802787311,60.708755122,0.000000000,,,,,,,,,,
1776350225.146119,,,,,,,,,,,,,,,,265000000.000000000,159.000000000,1.838595941,62.580528541,1.063668124
1776350225.148053,,,,,,,,,,,147998309.000000000,1776350225.000000000,2.672151907,62.279315328,0.000000000,,,,,
1776350225.148415,,,,,,148372715.000000000,1776350225.000000000,2.725325697,61.107073562,0.000000000,,,,,,,,,,
1776350225.151284,,,,,,,,,,,,,,,,270000000.000000000,159.000000000,1.752516120,62.881912315,1.062947420
1776350225.153055,,,,,,,,,,,153004020.000000000,1776350225.000000000,2.582924672,62.609712852,0.000000000,,,,,
1776350225.153413,,,,,,153372545.000000000,1776350225.000000000,2.656988218,61.436052700,0.000000000,,,,,,,,,,
1776350225.156217,,,,,,,,,,,,,,,,275000000.000000000,159.000000000,1.663275488,63.169910052,1.062228686
1776350225.158046,,,,,,,,,,,157999632.000000000,1776350225.000000000,2.503699527,62.864299344,0.000000000,,,,,
1776350225.158420,,,,,,158369138.000000000,1776350225.000000000,2.596942736,61.703173276,0.000000000,,,,,,,,,,
1776350225.161218,,,,,,,,,,,,,,,,280000000.000000000,159.000000000,1.570920955,63.444341278,1.061512516
1776350225.163046,,,,,,,,,,,163003479.000000000,1776350225.000000000,2.434594908,63.047212764,0.000000000,,,,,
1776350225.163399,,,,,,163369710.000000000,1776350225.000000000,2.544418458,61.915257922,0.000000000,,,,,,,,,,
1776350225.166390,,,,,,,,,,,,,,,,285000000.000000000,159.000000000,1.475460392,63.705014606,1.060799679
1776350225.167853,280000000.000000000,159.000000000,1.764321424,63.385655465,1.000000000,,,,,,,,,,,,,,,
1776350225.168057,,,,,,,,,,,168000974.000000000,1776350225.000000000,2.308245775,63.373651371,0.000000000,,,,,
1776350225.168427,,,,,,168370972.000000000,1776350225.000000000,2.396315703,62.399389997,0.000000000,,,,,,,,,,
1776350225.171116,,,,,,,,,,,,,,,,290000000.000000000,159.000000000,1.376877896,63.951726355,1.060091100
1776350225.173061,,,,,,,,,,,173006976.000000000,1776350225.000000000,2.164980618,63.723185296,0.000000000,,,,,
1776350225.173416,,,,,,173372926.000000000,1776350225.000000000,2.264760036,62.807782058,0.000000000,,,,,,,,,,
1776350225.176110,,,,,,,,,,,,,,,,295000000.000000000,159.000000000,1.275204185,64.184294191,1.059387607
1776350225.178123,,,,,,,,,,,178037213.000000000,1776350225.000000000,2.023627551,64.041175930,0.000000000,,,,,
1776350225.178441,,,,,,178390639.000000000,1776350225.000000000,2.148282653,63.148347916,0.000000000,,,,,,,,,,
1776350225.181247,,,,,,,,,,,,,,,,300000000.000000000,159.000000000,1.170562661,64.402524620,1.058690092
1776350225.183062,,,,,,,,,,,183006024.000000000,1776350225.000000000,1.892342026,64.305422233,0.000000000,,,,,
1776350225.183424,,,,,,183371092.000000000,1776350225.000000000,2.045529479,63.428321846,0.000000000,,,,,,,,,,
1776350225.186133,,,,,,,,,,,,,,,,305000000.000000000,159.000000000,1.063124825,64.606232730,1.057999441
1776350225.188045,,,,,,,,,,,187998550.000000000,1776350225.000000000,1.774303269,64.509250671,0.000000000,,,,,
1776350225.188412,,,,,,188371143.000000000,1776350225.000000000,1.955229970,63.654319048,0.000000000,,,,,,,,,,
1776350225.191117,,,,,,,,,,,,,,,,310000000.000000000,159.000000000,0.953040288,64.795240476,1.057316477
1776350225.193049,,,,,,,,,,,193000644.000000000,1776350225.000000000,1.670861966,64.653658527,0.000000000,,,,,
1776350225.193419,,,,,,193369890.000000000,1776350225.000000000,1.876199956,63.832354035,0.000000000,,,,,,,,,,
1776350225.196053,,,,,,,,,,,,,,,,315000000.000000000,159.000000000,0.840414022,64.969387293,1.056641885
1776350225.198050,,,,,,,,,,,198002237.000000000,1776350225.000000000,1.581589662,64.742883343,0.000000000,,,,,
1776350225.198420,,,,,,198367295.000000000,1776350225.000000000,1.807391108,63.967920828,0.000000000,,,,,,,,,,
1776350225.201132,,,,,,,,,,,,,,,,320000000.000000000,159.000000000,0.725307139,65.128483856,1.055976525
1776350225.203105,,,,,,,,,,,203003910.000000000,1776350225.000000000,1.504956295,64.782469141,0.000000000,,,,,
1776350225.203606,,,,,,203377445.000000000,1776350225.000000000,1.747787133,64.066020353,0.000000000,,,,,,,,,,
1776350225.206105,,,,,,,,,,,,,,,,325000000.000000000,159.000000000,0.607831552,65.272333444,1.055321436
1776350225.208062,,,,,,,,,,,208003890.000000000,1776350225.000000000,1.439687881,64.778353875,0.000000000,,,,,
1776350225.208617,,,,,,208374269.000000000,1776350225.000000000,1.696509382,64.131200112,0.000000000,,,,,,,,,,
1776350225.208652,320000000.000000000,159.000000000,2.914377047,62.994971551,1.000000000,,,,,,,,,,,,,,,
1776350225.211136,,,,,,,,,,,,,,,,330000000.000000000,159.000000000,0.488209157,65.400733329,1.054677830
1776350225.213066,,,,,,,,,,,213004932.000000000,1776350225.000000000,1.497779133,64.698064734,0.000000000,,,,,
1776350225.213428,,,,,,213372997.000000000,1776350225.000000000,1.825180555,64.108995901,0.000000000,,,,,,,,,,
1776350225.216177,,,,,,,,,,,,,,,,335000000.000000000,159.000000000,0.366725525,65.513511971,1.054046808
1776350225.218371,,,,,,,,,,,218028397.000000000,1776350225.000000000,1.609554854,64.570276413,0.000000000,,,,,
1776350225.218429,,,,,,218387394.000000000,1776350225.000000000,1.943029986,64.067709693,0.000000000,,,,,,,,,,
1776350225.221212,,,,,,,,,,,,,,,,340000000.000000000,159.000000000,0.243678078,65.610489246,1.053429480
1776350225.223067,,,,,,,,,,,223010844.000000000,1776350225.000000000,1.740147623,64.411122340,0.000000000,,,,,
1776350225.223426,,,,,,223373898.000000000,1776350225.000000000,2.050868135,64.010228292,0.000000000,,,,,,,,,,
1776350225.226117,,,,,,,,,,,,,,,,345000000.000000000,159.000000000,0.119304280,65.691491179,1.052826913
1776350225.228052,,,,,,,,,,,228005644.000000000,1776350225.000000000,1.872583694,64.230509692,0.000000000,,,,,
1776350225.228407,,,,,,228369841.000000000,1776350225.000000000,2.149395040,63.939137412,0.000000000,,,,,,,,,,
1776350225.231079,,,,,,,,,,,,,,,,350000000.000000000,159.000000000,-0.006239451,65.756345132,1.052240122
1776350225.233047,,,,,,,,,,,233004732.000000000,1776350225.000000000,2.000509589,64.034831365,0.000000000,,,,,
1776350225.233610,,,,,,233563767.000000000,1776350225.000000000,2.239218445,63.856776427,0.000000000,,,,,,,,,,
1776350225.236083,,,,,,,,,,,,,,,,355000000.000000000,159.000000000,-0.132771701,65.804894186,1.051670005
1776350225.238077,,,,,,,,,,,238010754.000000000,1776350225.000000000,2.120343301,63.828621098,0.000000000,,,,,
1776350225.238371,,,,,,238318965.000000000,1776350225.000000000,2.321012863,63.765242125,0.000000000,,,,,,,,,,
1776350225.241286,,,,,,,,,,,,,,,,360000000.000000000,159.000000000,-0.260010801,65.836983724,1.051117544
1776350225.243082,,,,,,,,,,,243018348.000000000,1776350225.000000000,2.229379967,63.615350780,0.000000000,,,,,
1776350225.243470,,,,,,243395429.000000000,1776350225.000000000,2.395289105,63.666414002,0.000000000,,,,,,,,,,
1776350225.246242,,,,,,,,,,,,,,,,365000000.000000000,159.000000000,-0.387598553,65.852490576,1.050583788
1776350225.248063,,,,,,,,,,,248009612.000000000,1776350225.000000000,2.327472265,63.397664119,0.000000000,,,,,
1776350225.248426,,,,,,248373508.000000000,1776350225.000000000,2.462645836,63.561964912,0.000000000,,,,,,,,,,
1776350225.251364,,,,,,,,,,,,,,,,370000000.000000000,159.000000000,-0.515179060,65.851350171,1.050069637
1776350225.253053,,,,,,,,,,,253005584.000000000,1776350225.000000000,2.416652057,63.177939989,0.000000000,,,,,
1776350225.253420,,,,,,253379058.000000000,1776350225.000000000,2.523504888,63.453370186,0.000000000,,,,,,,,,,
1776350225.256285,,,,,,,,,,,,,,,,375000000.000000000,159.000000000,-0.642481151,65.833506561,1.049575958
1776350225.258091,,,,,,,,,,,258028558.000000000,1776350225.000000000,2.497134805,62.958109394,0.000000000,,,,,
1776350225.258454,,,,,,258390240.000000000,1776350225.000000000,2.578400626,63.341951108,0.000000000,,,,,,,,,,
1776350225.261261,,,,,,,,,,,,,,,,380000000.000000000,159.000000000,-0.769312981,65.798941856,1.049103448
1776350225.263065,,,,,,,,,,,263010995.000000000,1776350225.000000000,2.567624854,62.739758926,0.000000000,,,,,
1776350225.263419,,,,,,263375282.000000000,1776350225.000000000,2.627827568,63.228874917,0.000000000,,,,,,,,,,
1776350225.266202,,,,,,,,,,,,,,,,385000000.000000000,159.000000000,-0.895487849,65.747677274,1.048652695
1776350225.268052,,,,,,,,,,,268002258.000000000,1776350225.000000000,2.628362106,62.524383790,0.000000000,,,,,
1776350225.268391,,,,,,268348692.000000000,1776350225.000000000,2.672095552,63.115159272,0.000000000,,,,,,,,,,
1776350225.271130,,,,,,,,,,,,,,,,390000000.000000000,159.000000000,-1.020771273,65.679748799,1.048224313
1776350225.273218,,,,,,,,,,,273005023.000000000,1776350225.000000000,2.682693488,62.313177985,0.000000000,,,,,
1776350225.273422,,,,,,273374330.000000000,1776350225.000000000,2.711443327,63.001706713,0.000000000,,,,,,,,,,
1776350225.276203,,,,,,,,,,,,,,,,395000000.000000000,159.000000000,-1.144852852,65.595178368,1.047819102
1776350225.278044,,,,,,,,,,,278002849.000000000,1776350225.000000000,2.730757885,62.107171757,0.000000000,,,,,
1776350225.278415,,,,,,278367998.000000000,1776350225.000000000,2.746312732,62.889301408,0.000000000,,,,,,,,,,
1776350225.281200,,,,,,,,,,,,,,,,400000000.000000000,159.000000000,-1.267395956,65.494002458,1.047437995
1776350225.283061,,,,,,,,,,,283004583.000000000,1776350225.000000000,2.770657191,61.907167106,0.000000000,,,,,
1776350225.283426,,,,,,283375673.000000000,1776350225.000000000,2.776922012,62.778612622,0.000000000,,,,,,,,,,
1776350225.286375,,,,,,,,,,,,,,,,405000000.000000000,159.000000000,-1.388124819,65.376284069,1.047082056
1776350225.288105,,,,,,,,,,,288010774.000000000,1776350225.000000000,2.803139302,61.713927636,0.000000000,,,,,
1776350225.288427,,,,,,288378388.000000000,1776350225.000000000,2.803674031,62.670225075,0.000000000,,,,,,,,,,
1776350225.291142,,,,,,,,,,,,,,,,410000000.000000000,159.000000000,-1.506869959,65.242104489,1.046752356
1776350225.293069,,,,,,,,,,,293011456.000000000,1776350225.000000000,2.831313660,61.528076514,0.000000000,,,,,
1776350225.293421,,,,,,293377687.000000000,1776350225.000000000,2.826735451,62.564632702,0.000000000,,,,,,,,,,
1776350225.296179,,,,,,,,,,,,,,,,415000000.000000000,159.000000000,-1.623511210,65.091536857,1.046449925
1776350225.298095,,,,,,,,,,,298021034.000000000,1776350225.000000000,2.855170551,61.350091571,0.000000000,,,,,
1776350225.298464,,,,,,298393546.000000000,1776350225.000000000,2.846476404,62.462256178,0.000000000,,,,,,,,,,
1776350225.301225,,,,,,,,,,,,,,,,420000000.000000000,159.000000000,-1.737901712,64.924672001,1.046175636
1776350225.303079,,,,,,,,,,,303010995.000000000,1776350225.000000000,2.872608285,61.180306423,0.000000000,,,,,
1776350225.303440,,,,,,303377005.000000000,1776350225.000000000,2.863235837,62.363445661,0.000000000,,,,,,,,,,
1776350225.306030,,,,,,,,,,,,,,,,425000000.000000000,159.000000000,-1.849830283,64.741618802,1.045930321
1776350225.308054,,,,,,,,,,,308004593.000000000,1776350225.000000000,2.884306704,61.019002363,0.000000000,,,,,
1776350225.308422,,,,,,308374661.000000000,1776350225.000000000,2.877128916,62.268481848,0.000000000,,,,,,,,,,
1776350225.311157,,,,,,,,,,,,,,,,430000000.000000000,159.000000000,-1.959053462,64.542487679,1.045714892
1776350225.313059,,,,,,,,,,,313007889.000000000,1776350225.000000000,2.893198002,60.864054247,0.000000000,,,,,
1776350225.313445,,,,,,313378949.000000000,1776350225.000000000,2.882674196,62.068615296,0.000000000,,,,,,,,,,
1776350225.315991,,,,,,,,,,,,,,,,435000000.000000000,159.000000000,-2.065365713,64.327367659,1.045530441
1776350225.318190,,,,,,,,,,,318003842.000000000,1776350225.000000000,2.899189612,60.714054802,0.000000000,,,,,
1776350225.318421,,,,,,318377477.000000000,1776350225.000000000,2.887174828,61.854095559,0.000000000,,,,,,,,,,
1776350225.321157,,,,,,,,,,,,,,,,440000000.000000000,159.000000000,-2.168639624,64.096356740,1.045378116
1776350225.323088,,,,,,,,,,,323010514.000000000,1776350225.000000000,2.900042141,60.567994065,0.000000000,,,,,
1776350225.323421,,,,,,323374992.000000000,1776350225.000000000,2.890629452,61.624971652,0.000000000,,,,,,,,,,
1776350225.326223,,,,,,,,,,,,,,,,445000000.000000000,159.000000000,-2.268820841,63.849570744,1.045259069
1776350225.328066,,,,,,,,,,,328011667.000000000,1776350225.000000000,2.896676495,60.425186119,0.000000000,,,,,
1776350225.328443,,,,,,328378178.000000000,1776350225.000000000,2.892833368,61.381295489,0.000000000,,,,,,,,,,
1776350225.331222,,,,,,,,,,,,,,,,450000000.000000000,159.000000000,-2.365882541,63.587135462,1.045174381
1776350225.333075,,,,,,,,,,,333018810.000000000,1776350225.000000000,2.891891754,60.284844406,0.000000000,,,,,
1776350225.333432,,,,,,333377296.000000000,1776350225.000000000,2.893591167,61.123137417,0.000000000,,,,,,,,,,
1776350225.336413,,,,,,,,,,,,,,,,455000000.000000000,159.000000000,-2.459772331,63.309163247,1.045125071
1776350225.338166,,,,,,,,,,,338019822.000000000,1776350225.000000000,2.885504811,60.146350331,0.000000000,,,,,
1776350225.338458,,,,,,338384630.000000000,1776350225.000000000,2.892902307,60.850557196,0.000000000,,,,,,,,,,
1776350225.341579,,,,,,,,,,,,,,,,460000000.000000000,159.000000000,-2.550370112,63.015777969,1.045112004
1776350225.343071,,,,,,,,,,,343006888.000000000,1776350225.000000000,2.875366749,60.009014694,0.000000000,,,,,
1776350225.343436,,,,,,343381545.000000000,1776350225.000000000,2.890766602,60.563618140,0.000000000,,,,,,,,,,
1776350225.346112,,,,,,,,,,,,,,,,465000000.000000000,159.000000000,-2.637536320,62.707112700,1.045135981
1776350225.348059,,,,,,,,,,,348005876.000000000,1776350225.000000000,2.861894608,59.872360266,0.000000000,,,,,
1776350225.348433,,,,,,348371135.000000000,1776350225.000000000,2.887001295,60.262374392,0.000000000,,,,,,,,,,
1776350225.351260,,,,,,,,,,,,,,,,470000000.000000000,159.000000000,-2.721174285,62.383297489,1.045197866
1776350225.353065,,,,,,,,,,,353006708.000000000,1776350225.000000000,2.847793842,59.735761655,0.000000000,,,,,
1776350225.353423,,,,,,353376295.000000000,1776350225.000000000,2.881409645,59.946899094,0.000000000,,,,,,,,,,
1776350225.356269,,,,,,,,,,,,,,,,475000000.000000000,159.000000000,-2.801262371,62.044443826,1.045298639
1776350225.358052,,,,,,,,,,,358007589.000000000,1776350225.000000000,2.832737531,59.598602789,0.000000000,,,,,
1776350225.358406,,,,,,358367238.000000000,1776350225.000000000,2.873992577,59.617266127,0.000000000,,,,,,,,,,
1776350225.361155,,,,,,,,,,,,,,,,480000000.000000000,159.000000000,-2.877852349,61.690671935,1.045439248
1776350225.363046,,,,,,,,,,,363004293.000000000,1776350225.000000000,2.814174691,59.460310921,0.000000000,,,,,
1776350225.363412,,,,,,363372458.000000000,1776350225.000000000,2.864546220,59.273562041,0.000000000,,,,,,,,,,
1776350225.366397,,,,,,,,,,,,,,,,485000000.000000000,159.000000000,-2.951013688,61.322114406,1.045620522
1776350225.368066,,,,,,,,,,,368003021.000000000,1776350225.000000000,2.792917062,59.320116457,0.000000000,,,,,
1776350225.368428,,,,,,368373360.000000000,1776350225.000000000,2.853072395,58.915867680,0.000000000,,,,,,,,,,
1776350225.371217,,,,,,,,,,,,,,,,490000000.000000000,159.000000000,-3.020788966,60.938908575,1.045843148
1776350225.373200,,,,,,,,,,,373003853.000000000,1776350225.000000000,2.771286266,59.177338508,0.000000000,,,,,
1776350225.373412,,,,,,373372698.000000000,1776350225.000000000,2.839392298,58.544263541,0.000000000,,,,,,,,,,
1776350225.376513,,,,,,,,,,,,,,,,495000000.000000000,159.000000000,-3.087180237,60.541178462,1.046107741
1776350225.378088,,,,,,,,,,,378013411.000000000,1776350225.000000000,2.748859570,59.031212671,0.000000000,,,,,
1776350225.378439,,,,,,378373169.000000000,1776350225.000000000,2.823508744,58.158837349,0.000000000,,,,,,,,,,
1776350225.381245,,,,,,,,,,,,,,,,500000000.000000000,159.000000000,-3.150170567,60.129056489,1.046414755
1776350225.383062,,,,,,,,,,,383006097.000000000,1776350225.000000000,2.723390818,58.880835325,0.000000000,,,,,
1776350225.383436,,,,,,383377067.000000000,1776350225.000000000,2.805425088,57.759680241,0.000000000,,,,,,,,,,
1776350225.386164,,,,,,,,,,,,,,,,505000000.000000000,159.000000000,-3.209757683,59.702680738,1.046764513
1776350225.388077,,,,,,,,,,,388024522.000000000,1776350225.000000000,2.695025302,58.725422804,0.000000000,,,,,
1776350225.388606,,,,,,388375704.000000000,1776350225.000000000,2.784973200,57.346876032,0.000000000,,,,,,,,,,
1776350225.391079,,,,,,,,,,,,,,,,510000000.000000000,159.000000000,-3.265979225,59.262187410,1.047157305
1776350225.393063,,,,,,,,,,,393006348.000000000,1776350225.000000000,2.666166824,58.563962089,0.000000000,,,,,
1776350225.393433,,,,,,393377828.000000000,1776350225.000000000,2.761968438,56.920526609,0.000000000,,,,,,,,,,
1776350225.396161,,,,,,,,,,,,,,,,515000000.000000000,159.000000000,-3.318919372,58.807696731,1.047593452
1776350225.398053,,,,,,,,,,,398005556.000000000,1776350225.000000000,2.636314409,58.395380684,0.000000000,,,,,
1776350225.398404,,,,,,398367479.000000000,1776350225.000000000,2.736415817,56.480733214,0.000000000,,,,,,,,,,
1776350225.401146,,,,,,,,,,,,,,,,520000000.000000000,159.000000000,-3.368678731,58.339335180,1.048073147
1776350225.403059,,,,,,,,,,,403011768.000000000,1776350225.000000000,2.603021687,58.218593647,0.000000000,,,,,
1776350225.403423,,,,,,403375654.000000000,1776350225.000000000,2.708139541,56.027613483,0.000000000,,,,,,,,,,
1776350225.406248,,,,,,,,,,,,,,,,525000000.000000000,159.000000000,-3.415342002,57.857237421,1.048596378
1776350225.408061,,,,,,,,,,,408001679.000000000,1776350225.000000000,2.566782343,58.032155259,0.000000000,,,,,
1776350225.408465,,,,,,408386655.000000000,1776350225.000000000,2.677145879,55.561275277,0.000000000,,,,,,,,,,
1776350225.411345,,,,,,,,,,,,,,,,530000000.000000000,159.000000000,-3.458961175,57.361542415,1.049162925
1776350225.413055,,,,,,,,,,,413006869.000000000,1776350225.000000000,2.529513573,57.834648864,0.000000000,,,,,
1776350225.413432,,,,,,413380724.000000000,1776350225.000000000,2.643278160,55.081825195,0.000000000,,,,,,,,,,
1776350225.416175,,,,,,,,,,,,,,,,535000000.000000000,159.000000000,-3.499575866,56.852378172,1.049772458
1776350225.418095,,,,,,,,,,,418019743.000000000,1776350225.000000000,2.490638356,57.624444154,0.000000000,,,,,
1776350225.418464,,,,,,418392827.000000000,1776350225.000000000,2.606543987,54.589377607,0.000000000,,,,,,,,,,
1776350225.421532,,,,,,,,,,,,,,,,540000000.000000000,159.000000000,-3.537233491,56.329877974,1.050424425
1776350225.423065,,,,,,,,,,,423008211.000000000,1776350225.000000000,2.447784454,57.399733550,0.000000000,,,,,
1776350225.423444,,,,,,423384992.000000000,1776350225.000000000,2.566951664,54.084050097,0.000000000,,,,,,,,,,
1776350225.426147,,,,,,,,,,,,,,,,545000000.000000000,159.000000000,-3.572000068,55.794178223,1.051118055
1776350225.428053,,,,,,,,,,,428005376.000000000,1776350225.000000000,2.400950388,57.158405758,0.000000000,,,,,
1776350225.428573,,,,,,428379091.000000000,1776350225.000000000,2.524343685,53.565966386,0.000000000,,,,,,,,,,
1776350225.431134,,,,,,,,,,,,,,,,550000000.000000000,159.000000000,-3.603964291,55.245414563,1.051852453
1776350225.433050,,,,,,,,,,,433003393.000000000,1776350225.000000000,2.352118508,56.898161337,0.000000000,,,,,
1776350225.433415,,,,,,433377308.000000000,1776350225.000000000,2.478553342,53.035246857,0.000000000,,,,,,,,,,
1776350225.436124,,,,,,,,,,,,,,,,555000000.000000000,159.000000000,-3.633221345,54.683708870,1.052626728
1776350225.438058,,,,,,,,,,,438005998.000000000,1776350225.000000000,2.298710144,56.616558527,0.000000000,,,,,
1776350225.438426,,,,,,438374843.000000000,1776350225.000000000,2.429591085,52.492018569,0.000000000,,,,,,,,,,
1776350225.441256,,,,,,,,,,,,,,,,560000000.000000000,159.000000000,-3.659868586,54.109189326,1.053439791
1776350225.443089,,,,,,,,,,,443009414.000000000,1776350225.000000000,2.242354889,56.310383681,0.000000000,,,,,
1776350225.443434,,,,,,443382027.000000000,1776350225.000000000,2.377316110,51.936437785,0.000000000,,,,,,,,,,
1776350225.446133,,,,,,,,,,,,,,,,565000000.000000000,159.000000000,-3.683991060,53.521990112,1.054290277
1776350225.448045,,,,,,,,,,,448001028.000000000,1776350225.000000000,2.180370451,55.976240175,0.000000000,,,,,
1776350225.448449,,,,,,448377508.000000000,1776350225.000000000,2.321740424,51.368637731,0.000000000,,,,,,,,,,
1776350225.451133,,,,,,,,,,,,,,,,570000000.000000000,159.000000000,-3.705656041,52.922251151,1.055176602
1776350225.453062,,,,,,,,,,,453004886.000000000,1776350225.000000000,2.114384785,55.617024224,0.000000000,,,,,
1776350225.453423,,,,,,453379031.000000000,1776350225.000000000,2.262718631,50.788756580,0.000000000,,,,,,,,,,
1776350225.456190,,,,,,,,,,,,,,,,575000000.000000000,159.000000000,-3.724924142,52.310102825,1.056097147
1776350225.458110,,,,,,,,,,,458028691.000000000,1776350225.000000000,2.043454438,55.225829160,0.000000000,,,,,
1776350225.458453,,,,,,458387006.000000000,1776350225.000000000,2.200264362,50.196933584,0.000000000,,,,,,,,,,
1776350225.461152,,,,,,,,,,,,,,,,580000000.000000000,159.000000000,-3.741865383,51.685680757,1.057050037
1776350225.463068,,,,,,,,,,,463004615.000000000,1776350225.000000000,1.966568785,54.814860653,0.000000000,,,,,
1776350225.463436,,,,,,463381536.000000000,1776350225.000000000,2.134392092,49.593310958,0.000000000,,,,,,,,,,
1776350225.466382,,,,,,,,,,,,,,,,585000000.000000000,159.000000000,-3.756558032,51.049123933,1.058033152
1776350225.468049,,,,,,,,,,,468002792.000000000,1776350225.000000000,1.884707886,54.390227270,0.000000000,,,,,
1776350225.468417,,,,,,468375174.000000000,1776350225.000000000,2.064962396,48.978038155,0.000000000,,,,,,,,,,
1776350225.471055,,,,,,,,,,,,,,,,590000000.000000000,159.000000000,-3.769081481,50.400573063,1.059044317
1776350225.473051,,,,,,,,,,,473001740.000000000,1776350225.000000000,1.799875118,53.954996507,0.000000000,,,,,
1776350225.473447,,,,,,473379352.000000000,1776350225.000000000,1.991850133,48.351266696,0.000000000,,,,,,,,,,
1776350225.476050,,,,,,,,,,,,,,,,595000000.000000000,159.000000000,-3.779514241,49.740164739,1.060081510
1776350225.478055,,,,,,,,,,,478007000.000000000,1776350225.000000000,1.711812264,53.510751578,0.000000000,,,,,
1776350225.478414,,,,,,478368432.000000000,1776350225.000000000,1.915072333,47.713147477,0.000000000,,,,,,,,,,
1776350225.481251,,,,,,,,,,,,,,,,600000000.000000000,159.000000000,-3.787929239,49.068044312,1.061142496
1776350225.483068,,,,,,,,,,,483017009.000000000,1776350225.000000000,1.618674229,53.058341230,0.000000000,,,,,
1776350225.483457,,,,,,483379723.000000000,1776350225.000000000,1.834502904,47.063837714,0.000000000,,,,,,,,,,
1776350225.486198,,,,,,,,,,,,,,,,605000000.000000000,159.000000000,-3.794394998,48.384364449,1.062224857
1776350225.488116,,,,,,,,,,,488009335.000000000,1776350225.000000000,1.521162025,52.598148145,0.000000000,,,,,
1776350225.488394,600000000.000000000,159.000000000,-3.529599216,48.249234435,1.000000000,,,,,,,,,,,,,,,
1776350225.488428,,,,,,488384572.000000000,1776350225.000000000,1.750160678,46.403493903,0.000000000,,,,,,,,,,
1776350225.491175,,,,,,,,,,,,,,,,610000000.000000000,159.000000000,-3.798982027,47.689285702,1.063326194
1776350225.493052,,,,,,,,,,,493004295.000000000,1776350225.000000000,0.883790837,51.479562163,0.000000000,,,,,
1776350225.493426,,,,,,493377118.000000000,1776350225.000000000,0.869989793,46.009131269,0.000000000,,,,,,,,,,
1776350225.496234,,,,,,,,,,,,,,,,615000000.000000000,159.000000000,-3.801764770,46.982967854,1.064444378
1776350225.498129,,,,,,,,,,,498041595.000000000,1776350225.000000000,0.041884777,50.140732654,0.000000000,,,,,
1776350225.498454,,,,,,498394762.000000000,1776350225.000000000,0.079697211,45.676595461,0.000000000,,,,,,,,,,
1776350225.501556,,,,,,,,,,,,,,,,620000000.000000000,159.000000000,-3.802823647,46.265580384,1.065577172
1776350225.503060,,,,,,,,,,,503005998.000000000,1776350225.000000000,-0.844010874,48.790881875,0.000000000,,,,,
1776350225.503439,,,,,,503386015.000000000,1776350225.000000000,-0.628257500,45.399800894,0.000000000,,,,,,,,,,
1776350225.506116,,,,,,,,,,,,,,,,625000000.000000000,159.000000000,-3.802227293,45.537301890,1.066722282
1776350225.508051,,,,,,,,,,,508003814.000000000,1776350225.000000000,-1.697522518,47.525096276,0.000000000,,,,,
1776350225.508416,,,,,,508374333.000000000,1776350225.000000000,-1.260964065,45.173172539,0.000000000,,,,,,,,,,
1776350225.511113,,,,,,,,,,,,,,,,630000000.000000000,159.000000000,-3.800032281,44.798324772,1.067877443
1776350225.513083,,,,,,,,,,,513008173.000000000,1776350225.000000000,-2.484648401,46.382859837,0.000000000,,,,,
1776350225.513432,,,,,,513376718.000000000,1776350225.000000000,-1.824934976,44.991561011,0.000000000,,,,,,,,,,
1776350225.516207,,,,,,,,,,,,,,,,635000000.000000000,159.000000000,-3.796284629,44.048845422,1.069040678
1776350225.518062,,,,,,,,,,,518007482.000000000,1776350225.000000000,-3.193608983,45.376038772,0.000000000,,,,,
1776350225.518376,,,,,,518321384.000000000,1776350225.000000000,-2.326097949,44.850269677,0.000000000,,,,,,,,,,
1776350225.521243,,,,,,,,,,,,,,,,640000000.000000000,159.000000000,-3.791046285,43.289078212,1.070209786
1776350225.523056,,,,,,,,,,,523003554.000000000,1776350225.000000000,-3.823555491,44.503281049,0.000000000,,,,,
1776350225.523464,,,,,,523376838.000000000,1776350225.000000000,-2.769927974,44.744997103,0.000000000,,,,,,,,,,
1776350225.526114,,,,,,,,,,,,,,,,645000000.000000000,159.000000000,-3.784393148,42.519251471,1.071382448
1776350225.528110,,,,,,,,,,,528009305.000000000,1776350225.000000000,-4.376875659,43.757607044,0.000000000,,,,,
1776350225.528193,640000000.000000000,159.000000000,-3.641036013,43.578156262,1.000000000,,,,,,,,,,,,,,,
1776350225.528461,,,,,,528378371.000000000,1776350225.000000000,-3.178272045,43.971127657,0.000000000,,,,,,,,,,
1776350225.531161,,,,,,,,,,,,,,,,650000000.000000000,159.000000000,-3.776408009,41.739606574,1.072556367
1776350225.533049,,,,,,,,,,,533001631.000000000,1776350225.000000000,-4.868764377,42.673792876,0.000000000,,,,,
1776350225.533429,,,,,,533376498.000000000,1776350225.000000000,-3.537418054,43.296936752,0.000000000,,,,,,,,,,
1776350225.536292,,,,,,,,,,,,,,,,655000000.000000000,159.000000000,-3.767163461,40.950385590,1.073729488
1776350225.538065,,,,,,,,,,,538001140.000000000,1776350225.000000000,-5.298928527,41.519555042,0.000000000,,,,,
1776350225.538441,,,,,,538381016.000000000,1776350225.000000000,-3.851792019,42.713130772,0.000000000,,,,,,,,,,
1776350225.541467,,,,,,,,,,,,,,,,660000000.000000000,159.000000000,-3.756718840,40.151844556,1.074899585
1776350225.543082,,,,,,,,,,,543014074.000000000,1776350225.000000000,-5.669375435,40.419557983,0.000000000,,,,,
1776350225.543460,,,,,,543390895.000000000,1776350225.000000000,-4.125517410,42.211139951,0.000000000,,,,,,,,,,
1776350225.546054,,,,,,,,,,,,,,,,665000000.000000000,159.000000000,-3.745118037,39.344249206,1.076064317
1776350225.548052,,,,,,,,,,,548000889.000000000,1776350225.000000000,-5.984344592,39.427310396,0.000000000,,,,,
1776350225.548435,,,,,,548380235.000000000,1776350225.000000000,-4.362346662,41.783105712,0.000000000,,,,,,,,,,
1776350225.551085,,,,,,,,,,,,,,,,670000000.000000000,159.000000000,-3.732395708,38.527878689,1.077221253
1776350225.553050,,,,,,,,,,,553005488.000000000,1776350225.000000000,-6.248423225,38.561559850,0.000000000,,,,,
1776350225.553423,,,,,,553376518.000000000,1776350225.000000000,-4.565739522,41.421808451,0.000000000,,,,,,,,,,
1776350225.556214,,,,,,,,,,,,,,,,675000000.000000000,159.000000000,-3.718595648,37.703020079,1.078367994
1776350225.558045,,,,,,,,,,,558001912.000000000,1776350225.000000000,-6.466295901,37.824354148,0.000000000,,,,,
1776350225.558409,,,,,,558373122.000000000,1776350225.000000000,-4.738874669,41.120618755,0.000000000,,,,,,,,,,
1776350225.561053,,,,,,,,,,,,,,,,680000000.000000000,159.000000000,-3.703784698,36.869986180,1.079501806
1776350225.563050,,,,,,,,,,,563002302.000000000,1776350225.000000000,-6.642188980,37.209945687,0.000000000,,,,,
1776350225.563419,,,,,,563379414.000000000,1776350225.000000000,-4.884675150,40.873454600,0.000000000,,,,,,,,,,
1776350225.566321,,,,,,,,,,,,,,,,685000000.000000000,159.000000000,-3.688041225,36.029106991,1.080619743
1776350225.567689,680000000.000000000,159.000000000,-3.524680646,37.203807273,1.000000000,,,,,,,,,,,,,,,
1776350225.568061,,,,,,,,,,,568004687.000000000,1776350225.000000000,-6.768718403,36.087844276,0.000000000,,,,,
1776350225.568435,,,,,,568379534.000000000,1776350225.000000000,-4.988351232,39.718582837,0.000000000,,,,,,,,,,
1776350225.571150,,,,,,,,,,,,,,,,690000000.000000000,159.000000000,-3.671435607,35.180726389,1.081718782
1776350225.573066,,,,,,,,,,,573006360.000000000,1776350225.000000000,-6.857398908,34.827318344,0.000000000,,,,,
1776350225.573435,,,,,,573382840.000000000,1776350225.000000000,-5.071550539,38.704241248,0.000000000,,,,,,,,,,
1776350225.576329,,,,,,,,,,,,,,,,695000000.000000000,159.000000000,-3.654005037,34.325194314,1.082796001
1776350225.578092,,,,,,,,,,,578018353.000000000,1776350225.000000000,-6.915090647,33.601875274,0.000000000,,,,,
1776350225.578454,,,,,,578390675.000000000,1776350225.000000000,-5.136397017,37.817553139,0.000000000,,,,,,,,,,
1776350225.581307,,,,,,,,,,,,,,,,700000000.000000000,159.000000000,-3.635758618,33.462872791,1.083848495
1776350225.583067,,,,,,,,,,,583008124.000000000,1776350225.000000000,-6.945785510,32.488315838,0.000000000,,,,,
1776350225.583433,,,,,,583377831.000000000,1776350225.000000000,-5.184836638,37.046663702,0.000000000,,,,,,,,,,
1776350225.586143,,,,,,,,,,,,,,,,705000000.000000000,159.000000000,-3.616704406,32.594123587,1.084873469
1776350225.588052,,,,,,,,,,,588007302.000000000,1776350225.000000000,-6.952860704,31.515324901,0.000000000,,,,,
1776350225.588433,,,,,,588379554.000000000,1776350225.000000000,-5.218579711,36.380698784,0.000000000,,,,,,,,,,
1776350225.591070,,,,,,,,,,,,,,,,710000000.000000000,159.000000000,-3.596879876,31.719307519,1.085868293
1776350225.593048,,,,,,,,,,,593004477.000000000,1776350225.000000000,-6.940862556,30.688367299,0.000000000,,,,,
1776350225.593435,,,,,,593379935.000000000,1776350225.000000000,-5.239152597,35.809651748,0.000000000,,,,,,,,,,
1776350225.596018,,,,,,,,,,,,,,,,715000000.000000000,159.000000000,-3.576339407,30.838806112,1.086830405
1776350225.598068,,,,,,,,,,,598005709.000000000,1776350225.000000000,-6.912130948,30.002445247,0.000000000,,,,,
1776350225.598415,,,,,,598343005.000000000,1776350225.000000000,-5.248070233,35.324299293,0.000000000,,,,,,,,,,
1776350225.601288,,,,,,,,,,,,,,,,720000000.000000000,159.000000000,-3.555145783,29.953002442,1.087757497
1776350225.603063,,,,,,,,,,,603010398.000000000,1776350225.000000000,-6.867106571,29.448135339,0.000000000,,,,,
1776350225.603436,,,,,,603388832.000000000,1776350225.000000000,-5.246571724,34.916204283,0.000000000,,,,,,,,,,
1776350225.606297,,,,,,,,,,,,,,,,725000000.000000000,159.000000000,-3.533344906,29.062281279,1.088647509
1776350225.607922,720000000.000000000,159.000000000,-3.495998277,30.232972827,1.000000000,,,,,,,,,,,,,,,
1776350225.608016,,,,,,,,,,,607963660.000000000,1776350225.000000000,-6.804655747,28.334530196,0.000000000,,,,,
1776350225.608474,,,,,,608421454.000000000,1776350225.000000000,-5.231635946,33.531967347,0.000000000,,,,,,,,,,
1776350225.611106,,,,,,,,,,,,,,,,730000000.000000000,159.000000000,-3.510948199,28.167036845,1.089498639
1776350225.613068,,,,,,,,,,,613011010.000000000,1776350225.000000000,-6.730908082,27.064060267,0.000000000,,,,,
1776350225.613439,,,,,,613378242.000000000,1776350225.000000000,-5.208970079,32.316419815,0.000000000,,,,,,,,,,
1776350225.616386,,,,,,,,,,,,,,,,735000000.000000000,159.000000000,-3.487950127,27.267695940,1.090309226
1776350225.618089,,,,,,,,,,,618019546.000000000,1776350225.000000000,-6.647883406,25.826230372,0.000000000,,,,,
1776350225.618463,,,,,,618394252.000000000,1776350225.000000000,-5.179626831,31.254054650,0.000000000,,,,,,,,,,
1776350225.621342,,,,,,,,,,,,,,,,740000000.000000000,159.000000000,-3.464341406,26.364663842,1.091078134
1776350225.623059,,,,,,,,,,,623008335.000000000,1776350225.000000000,-6.554664812,24.705287607,0.000000000,,,,,
1776350225.623439,,,,,,623383222.000000000,1776350225.000000000,-5.144560850,30.330598727,0.000000000,,,,,,,,,,
1776350225.626143,,,,,,,,,,,,,,,,745000000.000000000,159.000000000,-3.440133842,25.458320730,1.091804678
1776350225.628048,,,,,,,,,,,628002664.000000000,1776350225.000000000,-6.452748121,23.732467424,0.000000000,,,,,
1776350225.628417,,,,,,628375407.000000000,1776350225.000000000,-5.104420171,29.532982782,0.000000000,,,,,,,,,,
1776350225.631346,,,,,,,,,,,,,,,,750000000.000000000,159.000000000,-3.415360891,24.549034555,1.092488517
1776350225.633054,,,,,,,,,,,633005049.000000000,1776350225.000000000,-6.346721317,22.913792184,0.000000000,,,,,
1776350225.633432,,,,,,633381569.000000000,1776350225.000000000,-5.059762812,28.849167256,0.000000000,,,,,,,,,,
1776350225.636104,,,,,,,,,,,,,,,,755000000.000000000,159.000000000,-3.390066271,23.637217194,1.093129358
1776350225.638042,,,,,,,,,,,638002484.000000000,1776350225.000000000,-6.233863710,22.244354402,0.000000000,,,,,
1776350225.638429,,,,,,638382440.000000000,1776350225.000000000,-5.011361260,28.268052001,0.000000000,,,,,,,,,,
1776350225.641289,,,,,,,,,,,,,,,,760000000.000000000,159.000000000,-3.364283129,22.723239716,1.093727435
1776350225.643393,,,,,,,,,,,643041918.000000000,1776350225.000000000,-6.118818623,21.713277698,0.000000000,,,,,
1776350225.643448,,,,,,643401557.000000000,1776350225.000000000,-4.959639944,27.779480057,0.000000000,,,,,,,,,,
1776350225.646261,,,,,,,,,,,,,,,,765000000.000000000,159.000000000,-3.338017784,21.807448635,1.094283356
1776350225.648075,,,,,,,,,,,648011290.000000000,1776350225.000000000,-5.998628950,21.308413126,0.000000000,,,,,
1776350225.648448,,,,,,648383392.000000000,1776350225.000000000,-4.905264371,27.374101266,0.000000000,,,,,,,,,,
1776350225.651103,760000000.000000000,159.000000000,-3.315086649,23.154047123,1.000000000,,,,,,,,,,,,,,,
1776350225.651302,,,,,,,,,,,,,,,,770000000.000000000,159.000000000,-3.311273678,20.890184814,1.094797949
1776350225.653053,,,,,,,,,,,653002654.000000000,1776350225.000000000,-5.860193084,20.326802222,0.000000000,,,,,
1776350225.653427,,,,,,653377591.000000000,1776350225.000000000,-4.821419608,25.981524901,0.000000000,,,,,,,,,,
1776350225.656422,,,,,,,,,,,,,,,,775000000.000000000,159.000000000,-3.284070553,19.971842689,1.095271991
1776350225.658072,,,,,,,,,,,658008155.000000000,1776350225.000000000,-5.711003093,19.177486513,0.000000000,,,,,
1776350225.658426,,,,,,658377972.000000000,1776350225.000000000,-4.738575171,24.763660645,0.000000000,,,,,,,,,,
1776350225.661219,,,,,,,,,,,,,,,,780000000.000000000,159.000000000,-3.256431043,19.052748626,1.095706774
1776350225.663055,,,,,,,,,,,663003927.000000000,1776350225.000000000,-5.560837158,18.052761832,0.000000000,,,,,
1776350225.663414,,,,,,663376680.000000000,1776350225.000000000,-4.656723557,23.704222744,0.000000000,,,,,,,,,,
1776350225.666168,,,,,,,,,,,,,,,,785000000.000000000,159.000000000,-3.228368102,18.133179420,1.096103897
1776350225.668056,,,,,,,,,,,668008776.000000000,1776350225.000000000,-5.408921206,17.037602732,0.000000000,,,,,
1776350225.668431,,,,,,668378994.000000000,1776350225.000000000,-4.576148886,22.788227793,0.000000000,,,,,,,,,,
1776350225.671017,,,,,,,,,,,,,,,,790000000.000000000,159.000000000,-3.199882921,17.213395524,1.096465087
