__time,/uav/cv/swing_angle/world_frame/cartesian/header/stamp/nanosec,/uav/cv/swing_angle/world_frame/cartesian/header/stamp/sec,/uav/cv/swing_angle/world_frame/cartesian/vector/x,/uav/cv/swing_angle/world_frame/cartesian/vector/y,/uav/cv/swing_angle/world_frame/cartesian/vector/z,/uav/eso/swing_angle/world_frame/cartesian/header/stamp/nanosec,/uav/eso/swing_angle/world_frame/cartesian/header/stamp/sec,/uav/eso/swing_angle/world_frame/cartesian/vector/x,/uav/eso/swing_angle/world_frame/cartesian/vector/y,/uav/eso/swing_angle/world_frame/cartesian/vector/z,/uav/eso_fusion/swing_angle/world_frame/cartesian/header/stamp/nanosec,/uav/eso_fusion/swing_angle/world_frame/cartesian/header/stamp/sec,/uav/eso_fusion/swing_angle/world_frame/cartesian/vector/x,/uav/eso_fusion/swing_angle/world_frame/cartesian/vector/y,/uav/eso_fusion/swing_angle/world_frame/cartesian/vector/z,/uav/truth/swing_angle/world_frame/cartesian/header/stamp/nanosec,/uav/truth/swing_angle/world_frame/cartesian/header/stamp/sec,/uav/truth/swing_angle/world_frame/cartesian/vector/x,/uav/truth/swing_angle/world_frame/cartesian/vector/y,/uav/truth/swing_angle/world_frame/cartesian/vector/z
1776349215.191941,,,,,,,,,,,191898422.000000000,1776349215.000000000,6.258752873,-41.297579205,0.000000000,,,,,
1776349215.193474,,,,,,193405529.000000000,1776349215.000000000,6.226035500,-41.876736791,0.000000000,,,,,,,,,,
1776349215.194128,,,,,,,,,,,,,,,,210000000.000000000,132.000000000,5.681482148,-41.375004378,1.079002394
1776349215.196948,,,,,,,,,,,196891030.000000000,1776349215.000000000,6.230192716,-41.139151865,0.000000000,,,,,
1776349215.198455,,,,,,198397998.000000000,1776349215.000000000,6.202847933,-41.757151795,0.000000000,,,,,,,,,,
1776349215.199214,,,,,,,,,,,,,,,,215000000.000000000,132.000000000,5.653237868,-41.236478897,1.079044287
1776349215.202096,,,,,,,,,,,202046376.000000000,1776349215.000000000,6.200154155,-40.976265089,0.000000000,,,,,
1776349215.203447,,,,,,203394734.000000000,1776349215.000000000,6.181303697,-41.645020942,0.000000000,,,,,,,,,,
1776349215.203923,,,,,,,,,,,,,,,,220000000.000000000,132.000000000,5.623135111,-41.088299884,1.079099023
1776349215.206955,,,,,,,,,,,206902588.000000000,1776349215.000000000,6.170570950,-40.817201661,0.000000000,,,,,
1776349215.208441,,,,,,208385269.000000000,1776349215.000000000,6.161308905,-41.540106306,0.000000000,,,,,,,,,,
1776349215.209053,,,,,,,,,,,,,,,,225000000.000000000,132.000000000,5.591207875,-40.930486124,1.079166675
1776349215.211938,,,,,,,,,,,211892231.000000000,1776349215.000000000,6.143280558,-40.665899497,0.000000000,,,,,
1776349215.213450,,,,,,213398717.000000000,1776349215.000000000,6.142774329,-41.442164691,0.000000000,,,,,,,,,,
1776349215.213930,,,,,,,,,,,,,,,,230000000.000000000,132.000000000,5.557503016,-40.763058931,1.079247284
1776349215.216970,,,,,,,,,,,216925537.000000000,1776349215.000000000,6.118529914,-40.524107731,0.000000000,,,,,
1776349215.218457,,,,,,218401946.000000000,1776349215.000000000,6.125693951,-41.350952338,0.000000000,,,,,,,,,,
1776349215.219069,,,,,,,,,,,,,,,,235000000.000000000,132.000000000,5.522070258,-40.586037547,1.079340900
1776349215.221948,,,,,,,,,,,221899591.000000000,1776349215.000000000,6.095366087,-40.392387071,0.000000000,,,,,
1776349215.223459,,,,,,223411046.000000000,1776349215.000000000,6.110059272,-41.266226183,0.000000000,,,,,,,,,,
1776349215.224181,,,,,,,,,,,,,,,,240000000.000000000,132.000000000,5.484944228,-40.399445183,1.079447555
1776349215.226954,,,,,,,,,,,226896899.000000000,1776349215.000000000,6.073987420,-40.270829863,0.000000000,,,,,
1776349215.228468,,,,,,228404196.000000000,1776349215.000000000,6.095770656,-41.187735022,0.000000000,,,,,,,,,,
1776349215.228946,,,,,,,,,,,,,,,,245000000.000000000,132.000000000,5.446144250,-40.203310233,1.079567252
1776349215.231947,,,,,,,,,,,231897783.000000000,1776349215.000000000,6.055114544,-40.159280457,0.000000000,,,,,
1776349215.232685,240000000.000000000,132.000000000,5.802480401,-40.531102302,1.000000000,,,,,,,,,,,,,,,
1776349215.233449,,,,,,233399510.000000000,1776349215.000000000,6.044752430,-40.933412596,0.000000000,,,,,,,,,,
1776349215.233970,,,,,,,,,,,,,,,,250000000.000000000,132.000000000,5.405686864,-39.997666099,1.079699955
1776349215.236934,,,,,,,,,,,236891214.000000000,1776349215.000000000,6.013947537,-39.939219885,0.000000000,,,,,
1776349215.238448,,,,,,238397239.000000000,1776349215.000000000,5.998817570,-40.703306583,0.000000000,,,,,,,,,,
1776349215.239029,,,,,,,,,,,,,,,,255000000.000000000,132.000000000,5.363597077,-39.782546898,1.079845605
1776349215.242124,,,,,,,,,,,242023816.000000000,1776349215.000000000,5.964636557,-39.682391806,0.000000000,,,,,
1776349215.243491,,,,,,243420205.000000000,1776349215.000000000,5.957613365,-40.495614032,0.000000000,,,,,,,,,,
1776349215.244047,,,,,,,,,,,,,,,,260000000.000000000,132.000000000,5.319914828,-39.557988972,1.080004110
1776349215.246965,,,,,,,,,,,246901869.000000000,1776349215.000000000,5.914518375,-39.423327849,0.000000000,,,,,
1776349215.248673,,,,,,248404248.000000000,1776349215.000000000,5.920744443,-40.308648430,0.000000000,,,,,,,,,,
1776349215.249137,,,,,,,,,,,,,,,,265000000.000000000,132.000000000,5.274694713,-39.324033516,1.080175330
1776349215.251951,,,,,,,,,,,251895550.000000000,1776349215.000000000,5.867866025,-39.178076276,0.000000000,,,,,
1776349215.253461,,,,,,253400303.000000000,1776349215.000000000,5.887845002,-40.140836903,0.000000000,,,,,,,,,,
1776349215.253944,,,,,,,,,,,,,,,,270000000.000000000,132.000000000,5.227995770,-39.080726483,1.080359075
1776349215.256938,,,,,,,,,,,256888450.000000000,1776349215.000000000,5.825761429,-38.953442241,0.000000000,,,,,
1776349215.258459,,,,,,258403171.000000000,1776349215.000000000,5.858651239,-39.990718707,0.000000000,,,,,,,,,,
1776349215.259247,,,,,,,,,,,,,,,,275000000.000000000,132.000000000,5.179866168,-38.828113569,1.080555162
1776349215.261938,,,,,,,,,,,261895245.000000000,1776349215.000000000,5.787916741,-38.751668582,0.000000000,,,,,
1776349215.263456,,,,,,263401020.000000000,1776349215.000000000,5.832900275,-39.856932138,0.000000000,,,,,,,,,,
1776349215.263949,,,,,,,,,,,,,,,,280000000.000000000,132.000000000,5.130338735,-38.566243415,1.080763387
1776349215.266946,,,,,,,,,,,266895589.000000000,1776349215.000000000,5.754497457,-38.572891380,0.000000000,,,,,
1776349215.268477,,,,,,268404499.000000000,1776349215.000000000,5.810283974,-39.738202121,0.000000000,,,,,,,,,,
1776349215.269325,,,,,,,,,,,,,,,,285000000.000000000,132.000000000,5.079439435,-38.295168536,1.080983519
1776349215.271356,280000000.000000000,132.000000000,5.419562302,-38.589389693,1.000000000,,,,,,,,,,,,,,,
1776349215.271949,,,,,,,,,,,271898437.000000000,1776349215.000000000,5.688869489,-38.226961741,0.000000000,,,,,
1776349215.273449,,,,,,273398351.000000000,1776349215.000000000,5.733080532,-39.342084229,0.000000000,,,,,,,,,,
1776349215.273923,,,,,,,,,,,,,,,,290000000.000000000,132.000000000,5.027195382,-38.014943268,1.081215327
1776349215.276943,,,,,,,,,,,276891988.000000000,1776349215.000000000,5.613144475,-37.828083284,0.000000000,,,,,
1776349215.278452,,,,,,278396610.000000000,1776349215.000000000,5.664371808,-38.988341398,0.000000000,,,,,,,,,,
1776349215.278986,,,,,,,,,,,,,,,,295000000.000000000,132.000000000,4.973646072,-37.725624133,1.081458562
1776349215.281983,,,,,,,,,,,281912419.000000000,1776349215.000000000,5.537436864,-37.430686350,0.000000000,,,,,
1776349215.283467,,,,,,283405380.000000000,1776349215.000000000,5.603462683,-38.673448937,0.000000000,,,,,,,,,,
1776349215.283956,,,,,,,,,,,,,,,,300000000.000000000,132.000000000,4.918837993,-37.427269474,1.081712942
1776349215.286959,,,,,,,,,,,286900610.000000000,1776349215.000000000,5.466727199,-37.059550318,0.000000000,,,,,
1776349215.288449,,,,,,288401786.000000000,1776349215.000000000,5.549659343,-38.394138276,0.000000000,,,,,,,,,,
1776349215.288907,,,,,,,,,,,,,,,,305000000.000000000,132.000000000,4.862821805,-37.119943254,1.081978125
1776349215.291950,,,,,,,,,,,291899350.000000000,1776349215.000000000,5.403755170,-36.724837006,0.000000000,,,,,
1776349215.293456,,,,,,293401919.000000000,1776349215.000000000,5.502322138,-38.147383969,0.000000000,,,,,,,,,,
1776349215.293963,,,,,,,,,,,,,,,,310000000.000000000,132.000000000,4.805647864,-36.803717779,1.082253691
1776349215.296931,,,,,,,,,,,296890436.000000000,1776349215.000000000,5.348885716,-36.429524231,0.000000000,,,,,
1776349215.298461,,,,,,298403625.000000000,1776349215.000000000,5.460922107,-37.930391735,0.000000000,,,,,,,,,,
1776349215.298999,,,,,,,,,,,,,,,,315000000.000000000,132.000000000,4.747355997,-36.478668433,1.082539210
1776349215.301972,,,,,,,,,,,301898013.000000000,1776349215.000000000,5.301304285,-36.173066272,0.000000000,,,,,
1776349215.303445,,,,,,303395873.000000000,1776349215.000000000,5.424962934,-37.740580131,0.000000000,,,,,,,,,,
1776349215.303948,,,,,,,,,,,,,,,,320000000.000000000,132.000000000,4.687979084,-36.144873065,1.082834237
1776349215.306949,,,,,,,,,,,306898126.000000000,1776349215.000000000,5.260723676,-35.953457356,0.000000000,,,,,
1776349215.308453,,,,,,308402328.000000000,1776349215.000000000,5.393928643,-37.575554753,0.000000000,,,,,,,,,,
1776349215.309145,,,,,,,,,,,,,,,,325000000.000000000,132.000000000,4.627552586,-35.802410196,1.083138324
1776349215.311104,320000000.000000000,132.000000000,4.980223437,-36.204812423,1.000000000,,,,,,,,,,,,,,,
1776349215.311949,,,,,,,,,,,311894382.000000000,1776349215.000000000,5.184567559,-35.535437993,0.000000000,,,,,
1776349215.313452,,,,,,313398824.000000000,1776349215.000000000,5.301444197,-37.075417040,0.000000000,,,,,,,,,,
1776349215.313944,,,,,,,,,,,,,,,,330000000.000000000,132.000000000,4.566119821,-35.451359426,1.083451015
1776349215.316950,,,,,,,,,,,316898423.000000000,1776349215.000000000,5.098068577,-35.058178862,0.000000000,,,,,
1776349215.318455,,,,,,318400019.000000000,1776349215.000000000,5.219733366,-36.632156889,0.000000000,,,,,,,,,,
1776349215.318865,,,,,,,,,,,,,,,,335000000.000000000,132.000000000,4.503727610,-35.091800878,1.083771890
1776349215.321954,,,,,,,,,,,321897584.000000000,1776349215.000000000,5.012763497,-34.587604266,0.000000000,,,,,
1776349215.323472,,,,,,323400663.000000000,1776349215.000000000,5.147866614,-36.240819057,0.000000000,,,,,,,,,,
1776349215.324103,,,,,,,,,,,,,,,,340000000.000000000,132.000000000,4.440432232,-34.723818296,1.084100476
1776349215.326973,,,,,,,,,,,326907445.000000000,1776349215.000000000,4.934161948,-34.153281204,0.000000000,,,,,
1776349215.328456,,,,,,328403662.000000000,1776349215.000000000,5.084940007,-35.896830822,0.000000000,,,,,,,,,,
1776349215.329124,,,,,,,,,,,,,,,,345000000.000000000,132.000000000,4.376288415,-34.347501088,1.084436252
1776349215.331948,,,,,,,,,,,331896798.000000000,1776349215.000000000,4.864871588,-33.767004531,0.000000000,,,,,
1776349215.333458,,,,,,333400719.000000000,1776349215.000000000,5.030121585,-35.595971361,0.000000000,,,,,,,,,,
1776349215.333940,,,,,,,,,,,,,,,,350000000.000000000,132.000000000,4.311340568,-33.962948915,1.084778619
1776349215.336957,,,,,,,,,,,336893184.000000000,1776349215.000000000,4.805425157,-33.431615187,0.000000000,,,,,
1776349215.338477,,,,,,338404820.000000000,1776349215.000000000,4.982684298,-35.334357891,0.000000000,,,,,,,,,,
1776349215.339011,,,,,,,,,,,,,,,,355000000.000000000,132.000000000,4.245622572,-33.570264196,1.085127008
1776349215.341949,,,,,,,,,,,341900210.000000000,1776349215.000000000,4.754958872,-33.146008046,0.000000000,,,,,
1776349215.343458,,,,,,343406867.000000000,1776349215.000000000,4.941966069,-35.108397355,0.000000000,,,,,,,,,,
1776349215.344098,,,,,,,,,,,,,,,,360000000.000000000,132.000000000,4.179167133,-33.169550049,1.085480844
1776349215.346953,,,,,,,,,,,346901716.000000000,1776349215.000000000,4.712990172,-32.907210585,0.000000000,,,,,
1776349215.348482,,,,,,348407781.000000000,1776349215.000000000,4.907308581,-34.914780020,0.000000000,,,,,,,,,,
1776349215.349303,,,,,,,,,,,,,,,,365000000.000000000,132.000000000,4.112008796,-32.760911023,1.085839540
1776349215.350886,360000000.000000000,132.000000000,4.460923867,-33.162705300,1.000000000,,,,,,,,,,,,,,,
1776349215.351933,,,,,,,,,,,351893072.000000000,1776349215.000000000,4.628549944,-32.414927664,0.000000000,,,,,
1776349215.353456,,,,,,353399979.000000000,1776349215.000000000,4.800212867,-34.294141848,0.000000000,,,,,,,,,,
1776349215.354075,,,,,,,,,,,,,,,,370000000.000000000,132.000000000,4.044183793,-32.344457072,1.086202488
1776349215.356939,,,,,,,,,,,356891482.000000000,1776349215.000000000,4.531914176,-31.846371604,0.000000000,,,,,
1776349215.358443,,,,,,358395664.000000000,1776349215.000000000,4.705962683,-33.746373890,0.000000000,,,,,,,,,,
1776349215.358939,,,,,,,,,,,,,,,,375000000.000000000,132.000000000,3.975725088,-31.920301528,1.086569113
1776349215.361944,,,,,,,,,,,361895563.000000000,1776349215.000000000,4.436764634,-31.285345352,0.000000000,,,,,
1776349215.363453,,,,,,363398652.000000000,1776349215.000000000,4.623419320,-33.264985311,0.000000000,,,,,,,,,,
1776349215.364033,,,,,,,,,,,,,,,,380000000.000000000,132.000000000,3.906671079,-31.488562147,1.086938790
1776349215.366958,,,,,,,,,,,366903280.000000000,1776349215.000000000,4.349518526,-30.769409149,0.000000000,,,,,
1776349215.368465,,,,,,368403615.000000000,1776349215.000000000,4.551491220,-32.843986034,0.000000000,,,,,,,,,,
1776349215.369160,,,,,,,,,,,,,,,,385000000.000000000,132.000000000,3.837058805,-31.049360463,1.087310873
1776349215.372112,,,,,,,,,,,372060148.000000000,1776349215.000000000,4.272853646,-30.313447497,0.000000000,,,,,
1776349215.373480,,,,,,373399319.000000000,1776349215.000000000,4.489174538,-32.477855120,0.000000000,,,,,,,,,,
1776349215.373872,,,,,,,,,,,,,,,,390000000.000000000,132.000000000,3.766923037,-30.602819158,1.087684739
1776349215.376937,,,,,,,,,,,376890381.000000000,1776349215.000000000,4.207365266,-29.920852563,0.000000000,,,,,
1776349215.378657,,,,,,378604649.000000000,1776349215.000000000,4.435562762,-32.161518383,0.000000000,,,,,,,,,,
1776349215.378958,,,,,,,,,,,,,,,,395000000.000000000,132.000000000,3.696298137,-30.149066718,1.088059771
1776349215.381943,,,,,,,,,,,381895905.000000000,1776349215.000000000,4.152466007,-29.590291248,0.000000000,,,,,
1776349215.383435,,,,,,383398594.000000000,1776349215.000000000,4.389826818,-31.890277282,0.000000000,,,,,,,,,,
1776349215.383865,,,,,,,,,,,,,,,,400000000.000000000,132.000000000,3.625217622,-29.688230193,1.088435380
1776349215.386949,,,,,,,,,,,386898763.000000000,1776349215.000000000,4.107489523,-29.317879085,0.000000000,,,,,
1776349215.388450,,,,,,388402033.000000000,1776349215.000000000,4.351183888,-31.659825602,0.000000000,,,,,,,,,,
1776349215.389062,,,,,,,,,,,,,,,,405000000.000000000,132.000000000,3.553711440,-29.220436309,1.088810997
1776349215.390803,400000000.000000000,132.000000000,3.927973653,-29.809518229,1.000000000,,,,,,,,,,,,,,,
1776349215.391945,,,,,,,,,,,391897814.000000000,1776349215.000000000,4.019714125,-28.772074363,0.000000000,,,,,
1776349215.393453,,,,,,393397026.000000000,1776349215.000000000,4.238973678,-30.963226326,0.000000000,,,,,,,,,,
1776349215.394028,,,,,,,,,,,,,,,,410000000.000000000,132.000000000,3.481810542,-28.745816707,1.089186046
1776349215.396940,,,,,,,,,,,396890653.000000000,1776349215.000000000,3.919924372,-28.147279039,0.000000000,,,,,
1776349215.398449,,,,,,398395166.000000000,1776349215.000000000,4.140610702,-30.350955467,0.000000000,,,,,,,,,,
1776349215.398973,,,,,,,,,,,,,,,,415000000.000000000,132.000000000,3.409541441,-28.264510532,1.089559954
1776349215.401948,,,,,,,,,,,401895285.000000000,1776349215.000000000,3.822568018,-27.535233004,0.000000000,,,,,
1776349215.403458,,,,,,403399467.000000000,1776349215.000000000,4.054809290,-29.815357415,0.000000000,,,,,,,,,,
1776349215.403922,,,,,,,,,,,,,,,,420000000.000000000,132.000000000,3.336933635,-27.776653968,1.089932167
1776349215.406942,,,,,,,,,,,406896330.000000000,1776349215.000000000,3.734040868,-26.976696765,0.000000000,,,,,
1776349215.408465,,,,,,408409308.000000000,1776349215.000000000,3.980384054,-29.349379065,0.000000000,,,,,,,,,,
1776349215.409101,,,,,,,,,,,,,,,,425000000.000000000,132.000000000,3.264016085,-27.282385627,1.090302127
1776349215.411941,,,,,,,,,,,411895461.000000000,1776349215.000000000,3.656692892,-26.487273507,0.000000000,,,,,
1776349215.413465,,,,,,413403871.000000000,1776349215.000000000,3.916245499,-28.946526769,0.000000000,,,,,,,,,,
1776349215.414019,,,,,,,,,,,,,,,,430000000.000000000,132.000000000,3.190816465,-26.781844711,1.090669299
1776349215.416948,,,,,,,,,,,416901946.000000000,1776349215.000000000,3.590987090,-26.070667915,0.000000000,,,,,
1776349215.418452,,,,,,418400778.000000000,1776349215.000000000,3.861387374,-28.600817929,0.000000000,,,,,,,,,,
1776349215.418883,,,,,,,,,,,,,,,,435000000.000000000,132.000000000,3.117363455,-26.275182658,1.091033113
1776349215.421942,,,,,,,,,,,421895597.000000000,1776349215.000000000,3.536641909,-25.724621316,0.000000000,,,,,
1776349215.423453,,,,,,423399538.000000000,1776349215.000000000,3.814882804,-28.306765812,0.000000000,,,,,,,,,,
1776349215.424008,,,,,,,,,,,,,,,,440000000.000000000,132.000000000,3.043684698,-25.762550305,1.091393026
1776349215.426946,,,,,,,,,,,426898034.000000000,1776349215.000000000,3.492837254,-25.444440409,0.000000000,,,,,
1776349215.428445,,,,,,428400834.000000000,1776349215.000000000,3.775891658,-28.059322602,0.000000000,,,,,,,,,,
1776349215.428967,,,,,,,,,,,,,,,,445000000.000000000,132.000000000,2.969805272,-25.244099070,1.091748514
1776349215.431815,440000000.000000000,132.000000000,3.338914560,-25.824085405,1.000000000,,,,,,,,,,,,,,,
1776349215.431944,,,,,,,,,,,431893048.000000000,1776349215.000000000,3.400980889,-24.835913663,0.000000000,,,,,
1776349215.433453,,,,,,433399304.000000000,1776349215.000000000,3.655285167,-27.256038516,0.000000000,,,,,,,,,,
1776349215.434056,,,,,,,,,,,,,,,,450000000.000000000,132.000000000,2.895745307,-24.719983971,1.092099060
1776349215.436936,,,,,,,,,,,436893171.000000000,1776349215.000000000,3.295125944,-24.130442645,0.000000000,,,,,
1776349215.438470,,,,,,438403705.000000000,1776349215.000000000,3.549677866,-26.551230760,0.000000000,,,,,,,,,,
1776349215.439041,,,,,,,,,,,,,,,,455000000.000000000,132.000000000,2.821532079,-24.190366147,1.092444154
1776349215.441951,,,,,,,,,,,441894967.000000000,1776349215.000000000,3.191628115,-23.437141041,0.000000000,,,,,
1776349215.443445,,,,,,443399359.000000000,1776349215.000000000,3.457644641,-25.935873722,0.000000000,,,,,,,,,,
1776349215.443901,,,,,,,,,,,,,,,,460000000.000000000,132.000000000,2.747185262,-23.655404481,1.092783330
1776349215.446948,,,,,,,,,,,446896613.000000000,1776349215.000000000,3.097517088,-22.804566181,0.000000000,,,,,
1776349215.448498,,,,,,448403951.000000000,1776349215.000000000,3.377901889,-25.401656857,0.000000000,,,,,,,,,,
1776349215.448956,,,,,,,,,,,,,,,,465000000.000000000,132.000000000,2.672723037,-23.115256385,1.093116151
1776349215.451954,,,,,,,,,,,451898089.000000000,1776349215.000000000,3.015085273,-22.251395086,0.000000000,,,,,
1776349215.453475,,,,,,453411388.000000000,1776349215.000000000,3.309269942,-24.940933424,0.000000000,,,,,,,,,,
1776349215.454005,,,,,,,,,,,,,,,,470000000.000000000,132.000000000,2.598165368,-22.570079801,1.093442207
1776349215.456943,,,,,,,,,,,456897220.000000000,1776349215.000000000,2.944914040,-21.782098443,0.000000000,,,,,
1776349215.458456,,,,,,458400901.000000000,1776349215.000000000,3.250633885,-24.546663545,0.000000000,,,,,,,,,,
1776349215.458895,,,,,,,,,,,,,,,,475000000.000000000,132.000000000,2.523538964,-22.020046847,1.093761048
1776349215.461942,,,,,,,,,,,461895039.000000000,1776349215.000000000,2.887054086,-21.394191787,0.000000000,,,,,
1776349215.463475,,,,,,463408638.000000000,1776349215.000000000,3.200967720,-24.212389050,0.000000000,,,,,,,,,,
1776349215.464190,,,,,,,,,,,,,,,,480000000.000000000,132.000000000,2.448860328,-21.465320404,1.094072317
1776349215.467057,,,,,,,,,,,467013525.000000000,1776349215.000000000,2.840563701,-21.082219552,0.000000000,,,,,
1776349215.468451,,,,,,468403822.000000000,1776349215.000000000,3.159369439,-23.932178049,0.000000000,,,,,,,,,,
1776349215.468923,,,,,,,,,,,,,,,,485000000.000000000,132.000000000,2.374143693,-20.906058503,1.094375703
1776349215.471952,,,,,,,,,,,471896908.000000000,1776349215.000000000,2.803929029,-20.839557993,0.000000000,,,,,
1776349215.472144,480000000.000000000,132.000000000,2.752006160,-21.577150870,1.000000000,,,,,,,,,,,,,,,
1776349215.473454,,,,,,473401180.000000000,1776349215.000000000,3.036976131,-23.063547574,0.000000000,,,,,,,,,,
1776349215.473933,,,,,,,,,,,,,,,,490000000.000000000,132.000000000,2.299402126,-20.342419938,1.094670918
1776349215.476946,,,,,,,,,,,476893073.000000000,1776349215.000000000,2.718858135,-20.245399592,0.000000000,,,,,
1776349215.478467,,,,,,478404208.000000000,1776349215.000000000,2.929976337,-22.303290427,0.000000000,,,,,,,,,,
1776349215.479012,,,,,,,,,,,,,,,,495000000.000000000,132.000000000,2.224642490,-19.774581860,1.094957626
1776349215.481939,,,,,,,,,,,481895471.000000000,1776349215.000000000,2.619906774,-19.545897960,0.000000000,,,,,
1776349215.483465,,,,,,483407948.000000000,1776349215.000000000,2.836878411,-21.641365743,0.000000000,,,,,,,,,,
1776349215.484150,,,,,,,,,,,,,,,,500000000.000000000,132.000000000,2.149870519,-19.202709790,1.095235588
1776349215.487077,,,,,,,,,,,487025048.000000000,1776349215.000000000,2.522916921,-18.857120612,0.000000000,,,,,
1776349215.488561,,,,,,488506256.000000000,1776349215.000000000,2.756363951,-21.068539783,0.000000000,,,,,,,,,,
1776349215.488967,,,,,,,,,,,,,,,,505000000.000000000,132.000000000,2.075100117,-18.626961579,1.095504616
1776349215.491936,,,,,,,,,,,491894946.000000000,1776349215.000000000,2.434320790,-18.230623243,0.000000000,,,,,
1776349215.493466,,,,,,493403175.000000000,1776349215.000000000,2.687221424,-20.576321405,0.000000000,,,,,,,,,,
1776349215.493997,,,,,,,,,,,,,,,,510000000.000000000,132.000000000,2.000344911,-18.047490647,1.095764565
1776349215.496943,,,,,,,,,,,496890590.000000000,1776349215.000000000,2.357099974,-17.686369498,0.000000000,,,,,
1776349215.498456,,,,,,498400132.000000000,1776349215.000000000,2.628289763,-20.156899726,0.000000000,,,,,,,,,,
1776349215.498984,,,,,,,,,,,,,,,,515000000.000000000,132.000000000,1.925622594,-17.464473452,1.096015211
1776349215.501945,,,,,,,,,,,501897486.000000000,1776349215.000000000,2.292234202,-17.229110065,0.000000000,,,,,
1776349215.503451,,,,,,503400826.000000000,1776349215.000000000,2.578522161,-19.803100487,0.000000000,,,,,,,,,,
1776349215.503877,,,,,,,,,,,,,,,,520000000.000000000,132.000000000,1.850945580,-16.878065623,1.096256467
1776349215.506951,,,,,,,,,,,506897319.000000000,1776349215.000000000,2.239228090,-16.856236654,0.000000000,,,,,
1776349215.508482,,,,,,508411930.000000000,1776349215.000000000,2.536994096,-19.508351088,0.000000000,,,,,,,,,,
1776349215.509123,,,,,,,,,,,,,,,,525000000.000000000,132.000000000,1.776319422,-16.288418909,1.096488276
1776349215.511515,520000000.000000000,132.000000000,2.148315844,-16.952883508,1.000000000,,,,,,,,,,,,,,,
1776349215.511932,,,,,,,,,,,511889797.000000000,1776349215.000000000,2.137596729,-16.111166783,0.000000000,,,,,
1776349215.513451,,,,,,513400461.000000000,1776349215.000000000,2.412304810,-18.572984974,0.000000000,,,,,,,,,,
1776349215.513966,,,,,,,,,,,,,,,,530000000.000000000,132.000000000,1.701746477,-15.695682888,1.096710603
1776349215.516954,,,,,,,,,,,516885953.000000000,1776349215.000000000,2.022663013,-15.262045430,0.000000000,,,,,
1776349215.518455,,,,,,518400554.000000000,1776349215.000000000,2.303370355,-17.755611090,0.000000000,,,,,,,,,,
1776349215.518862,,,,,,,,,,,,,,,,535000000.000000000,132.000000000,1.627226268,-15.100023278,1.096923368
1776349215.521943,,,,,,,,,,,521895794.000000000,1776349215.000000000,1.911310146,-14.434986531,0.000000000,,,,,
1776349215.523453,,,,,,523401359.000000000,1776349215.000000000,2.208670347,-17.045214601,0.000000000,,,,,,,,,,
1776349215.524122,,,,,,,,,,,,,,,,540000000.000000000,132.000000000,1.552767549,-14.501593784,1.097126569
1776349215.526966,,,,,,,,,,,526894224.000000000,1776349215.000000000,1.810593183,-13.685501217,0.000000000,,,,,
1776349215.528462,,,,,,528407403.000000000,1776349215.000000000,2.126853630,-16.431676689,0.000000000,,,,,,,,,,
1776349215.529008,,,,,,,,,,,,,,,,545000000.000000000,132.000000000,1.478384631,-13.900539500,1.097320244
1776349215.531954,,,,,,,,,,,531900208.000000000,1776349215.000000000,1.722484075,-13.034641602,0.000000000,,,,,
1776349215.533456,,,,,,533406223.000000000,1776349215.000000000,2.056678577,-15.905696199,0.000000000,,,,,,,,,,
1776349215.534008,,,,,,,,,,,,,,,,550000000.000000000,132.000000000,1.404095655,-13.296999514,1.097504458
1776349215.536951,,,,,,,,,,,536894590.000000000,1776349215.000000000,1.647492044,-12.486613792,0.000000000,,,,,
1776349215.538457,,,,,,538399233.000000000,1776349215.000000000,1.996951180,-15.458739645,0.000000000,,,,,,,,,,
1776349215.539092,,,,,,,,,,,,,,,,555000000.000000000,132.000000000,1.329921157,-12.691141326,1.097679182
1776349215.541961,,,,,,,,,,,541902769.000000000,1776349215.000000000,1.585907916,-12.037681627,0.000000000,,,,,
1776349215.543451,,,,,,543401610.000000000,1776349215.000000000,1.946570986,-15.082974197,0.000000000,,,,,,,,,,
1776349215.543940,,,,,,,,,,,,,,,,560000000.000000000,132.000000000,1.255864366,-12.083115429,1.097844500
1776349215.546960,,,,,,,,,,,546903323.000000000,1776349215.000000000,1.536631888,-11.680847649,0.000000000,,,,,
1776349215.548470,,,,,,548407334.000000000,1776349215.000000000,1.904595323,-14.771204263,0.000000000,,,,,,,,,,
1776349215.549160,,,,,,,,,,,,,,,,565000000.000000000,132.000000000,1.181914817,-11.473060717,1.098000534
1776349215.551350,560000000.000000000,132.000000000,1.543904509,-12.084092675,1.000000000,,,,,,,,,,,,,,,
1776349215.551950,,,,,,,,,,,551895581.000000000,1776349215.000000000,1.439060655,-10.933249405,0.000000000,,,,,
1776349215.553452,,,,,,553397578.000000000,1776349215.000000000,1.779498584,-13.786516898,0.000000000,,,,,,,,,,
1776349215.554034,,,,,,,,,,,,,,,,570000000.000000000,132.000000000,1.108053442,-10.861109851,1.098147424
1776349215.556947,,,,,,,,,,,556896485.000000000,1776349215.000000000,1.328055578,-10.076068706,0.000000000,,,,,
1776349215.558464,,,,,,558404915.000000000,1776349215.000000000,1.670321661,-12.927410341,0.000000000,,,,,,,,,,
1776349215.558997,,,,,,,,,,,,,,,,575000000.000000000,132.000000000,1.034274595,-10.247425521,1.098285218
1776349215.561944,,,,,,,,,,,561899875.000000000,1776349215.000000000,1.220545584,-9.241450966,0.000000000,,,,,
1776349215.563453,,,,,,563403175.000000000,1776349215.000000000,1.575521691,-12.182086218,0.000000000,,,,,,,,,,
1776349215.563930,,,,,,,,,,,,,,,,580000000.000000000,132.000000000,0.960584499,-9.632142686,1.098414079
1776349215.566937,,,,,,,,,,,566894457.000000000,1776349215.000000000,1.123569790,-8.487510555,0.000000000,,,,,
1776349215.568456,,,,,,568402947.000000000,1776349215.000000000,1.493731508,-11.539707660,0.000000000,,,,,,,,,,
1776349215.569054,,,,,,,,,,,,,,,,585000000.000000000,132.000000000,0.886999766,-9.015388617,1.098534171
1776349215.571939,,,,,,,,,,,571894119.000000000,1776349215.000000000,1.039185374,-7.836088665,0.000000000,,,,,
1776349215.573465,,,,,,573403050.000000000,1776349215.000000000,1.423694841,-10.990317348,0.000000000,,,,,,,,,,
1776349215.573902,,,,,,,,,,,,,,,,590000000.000000000,132.000000000,0.813531770,-8.397288347,1.098645660
1776349215.576952,,,,,,,,,,,576898180.000000000,1776349215.000000000,0.968109139,-7.291320018,0.000000000,,,,,
1776349215.578463,,,,,,578403273.000000000,1776349215.000000000,1.364212068,-10.524771554,0.000000000,,,,,,,,,,
1776349215.579037,,,,,,,,,,,,,,,,595000000.000000000,132.000000000,0.740185041,-7.777998731,1.098748636
1776349215.581948,,,,,,,,,,,581898774.000000000,1776349215.000000000,0.910252402,-6.849608464,0.000000000,,,,,
1776349215.583468,,,,,,583405941.000000000,1776349215.000000000,1.314196335,-10.134663734,0.000000000,,,,,,,,,,
1776349215.583919,,,,,,,,,,,,,,,,600000000.000000000,132.000000000,0.666943663,-7.157655493,1.098843279
1776349215.586963,,,,,,,,,,,586901963.000000000,1776349215.000000000,0.864565506,-6.503494021,0.000000000,,,,,
1776349215.588452,,,,,,588405233.000000000,1776349215.000000000,1.272688734,-9.812306508,0.000000000,,,,,,,,,,
1776349215.588956,,,,,,,,,,,,,,,,605000000.000000000,132.000000000,0.593783703,-6.536377204,1.098929793
1776349215.591392,600000000.000000000,132.000000000,0.980892403,-7.402204367,1.000000000,,,,,,,,,,,,,,,
1776349215.591948,,,,,,,,,,,591900082.000000000,1776349215.000000000,0.774593530,-5.788047432,0.000000000,,,,,
1776349215.593534,,,,,,593403232.000000000,1776349215.000000000,1.154358807,-8.848374763,0.000000000,,,,,,,,,,
1776349215.594012,,,,,,,,,,,,,,,,610000000.000000000,132.000000000,0.520691843,-5.914275616,1.099008369
1776349215.596936,,,,,,,,,,,596892911.000000000,1776349215.000000000,0.672711335,-4.972659751,0.000000000,,,,,
1776349215.598447,,,,,,598396442.000000000,1776349215.000000000,1.051400699,-8.010089858,0.000000000,,,,,,,,,,
1776349215.598923,,,,,,,,,,,,,,,,615000000.000000000,132.000000000,0.447673825,-5.291487542,1.099079130
1776349215.601953,,,,,,,,,,,601899186.000000000,1776349215.000000000,0.574578850,-4.183651954,0.000000000,,,,,
1776349215.603451,,,,,,603401925.000000000,1776349215.000000000,0.962318026,-7.285524288,0.000000000,,,,,,,,,,
1776349215.604039,,,,,,,,,,,,,,,,620000000.000000000,132.000000000,0.374753523,-4.668134934,1.099142253
1776349215.606953,,,,,,,,,,,606899129.000000000,1776349215.000000000,0.486692247,-3.476224031,0.000000000,,,,,
1776349215.608584,,,,,,608542262.000000000,1776349215.000000000,0.885779975,-6.663726521,0.000000000,,,,,,,,,,
1776349215.609042,,,,,,,,,,,,,,,,625000000.000000000,132.000000000,0.301953722,-4.044338957,1.099197910
1776349215.611941,,,,,,,,,,,611895705.000000000,1776349215.000000000,0.411183189,-2.870864434,0.000000000,,,,,
1776349215.613456,,,,,,613402562.000000000,1776349215.000000000,0.820564159,-6.134639640,0.000000000,,,,,,,,,,
1776349215.613978,,,,,,,,,,,,,,,,630000000.000000000,132.000000000,0.229279066,-3.420219261,1.099246269
1776349215.616946,,,,,,,,,,,616892632.000000000,1776349215.000000000,0.348554830,-2.370949003,0.000000000,,,,,
1776349215.618456,,,,,,618401783.000000000,1776349215.000000000,0.765528742,-5.689043596,0.000000000,,,,,,,,,,
1776349215.619037,,,,,,,,,,,,,,,,635000000.000000000,132.000000000,0.156710961,-2.795921165,1.099287453
1776349215.621942,,,,,,,,,,,621897624.000000000,1776349215.000000000,0.298433040,-1.972388640,0.000000000,,,,,
1776349215.623457,,,,,,623402888.000000000,1776349215.000000000,0.719633779,-5.318466844,0.000000000,,,,,,,,,,
1776349215.624129,,,,,,,,,,,,,,,,640000000.000000000,132.000000000,0.084216583,-2.171558718,1.099321654
1776349215.626946,,,,,,,,,,,626896164.000000000,1776349215.000000000,0.259839053,-1.667567729,0.000000000,,,,,
1776349215.628459,,,,,,628403011.000000000,1776349215.000000000,0.681941008,-5.015156905,0.000000000,,,,,,,,,,
1776349215.629739,,,,,,,,,,,,,,,,645000000.000000000,132.000000000,0.011773405,-1.547234782,1.099349042
1776349215.631525,640000000.000000000,132.000000000,-1.324303644,-2.355204295,1.000000000,,,,,,,,,,,,,,,
1776349215.631948,,,,,,,,,,,631897510.000000000,1776349215.000000000,0.006904866,-0.955772266,0.000000000,,,,,
1776349215.633450,,,,,,633397664.000000000,1776349215.000000000,0.305811828,-4.014967218,0.000000000,,,,,,,,,,
1776349215.633898,,,,,,,,,,,,,,,,650000000.000000000,132.000000000,-0.060618092,-0.923052828,1.099369761
1776349215.636935,,,,,,,,,,,636891532.000000000,1776349215.000000000,-0.324406069,-0.128385206,0.000000000,,,,,
1776349215.638471,,,,,,638410241.000000000,1776349215.000000000,-0.028628366,-3.145394236,0.000000000,,,,,,,,,,
1776349215.638927,,,,,,,,,,,,,,,,655000000.000000000,132.000000000,-0.132938368,-0.299145104,1.099383920
1776349215.641950,,,,,,,,,,,641896854.000000000,1776349215.000000000,-0.668511185,0.677930937,0.000000000,,,,,
1776349215.643473,,,,,,643410494.000000000,1776349215.000000000,-0.325081857,-2.394016140,0.000000000,,,,,,,,,,
1776349215.644149,,,,,,,,,,,,,,,,660000000.000000000,132.000000000,-0.205166969,0.324370256,1.099391673
1776349215.646958,,,,,,,,,,,646898350.000000000,1776349215.000000000,-0.995263403,1.403013144,0.000000000,,,,,
1776349215.648453,,,,,,648402381.000000000,1776349215.000000000,-0.586942114,-1.749418022,0.000000000,,,,,,,,,,
1776349215.648894,,,,,,,,,,,,,,,,665000000.000000000,132.000000000,-0.277301976,0.947379233,1.099393161
1776349215.651945,,,,,,,,,,,651895077.000000000,1776349215.000000000,-1.291909995,2.024199405,0.000000000,,,,,
1776349215.653470,,,,,,653402154.000000000,1776349215.000000000,-0.817336680,-1.201119450,0.000000000,,,,,,,,,,
1776349215.653963,,,,,,,,,,,,,,,,670000000.000000000,132.000000000,-0.349359552,1.569774468,1.099388519
1776349215.656918,,,,,,,,,,,656855736.000000000,1776349215.000000000,-1.554012392,2.537199025,0.000000000,,,,,
1776349215.658472,,,,,,658402307.000000000,1776349215.000000000,-1.019150450,-0.739510741,0.000000000,,,,,,,,,,
1776349215.659273,,,,,,,,,,,,,,,,675000000.000000000,132.000000000,-0.421359514,2.191435360,1.099377850
1776349215.661965,,,,,,,,,,,661899400.000000000,1776349215.000000000,-1.781412612,2.945924974,0.000000000,,,,,
1776349215.663484,,,,,,663403682.000000000,1776349215.000000000,-1.195029371,-0.355769531,0.000000000,,,,,,,,,,
1776349215.664277,,,,,,,,,,,,,,,,680000000.000000000,132.000000000,-0.493318118,2.812265770,1.099361278
1776349215.666949,,,,,,,,,,,666898822.000000000,1776349215.000000000,-1.975739059,3.258095370,0.000000000,,,,,
1776349215.668468,,,,,,668405789.000000000,1776349215.000000000,-1.347413437,-0.041822021,0.000000000,,,,,,,,,,
1776349215.669077,,,,,,,,,,,,,,,,685000000.000000000,132.000000000,-0.565229746,3.432167690,1.099338894
1776349215.671903,680000000.000000000,132.000000000,-0.337126460,3.770898139,1.000000000,,,,,,,,,,,,,,,
1776349215.671937,,,,,,,,,,,671884488.000000000,1776349215.000000000,-2.139378597,3.482650551,0.000000000,,,,,
1776349215.673454,,,,,,673402125.000000000,1776349215.000000000,-1.330469351,1.128636188,0.000000000,,,,,,,,,,
1776349215.673913,,,,,,,,,,,,,,,,690000000.000000000,132.000000000,-0.637071830,4.051037760,1.099310781
1776349215.676950,,,,,,,,,,,676900281.000000000,1776349215.000000000,-2.178842657,4.226064285,0.000000000,,,,,
1776349215.678405,,,,,,678354889.000000000,1776349215.000000000,-1.309381449,2.150042523,0.000000000,,,,,,,,,,
1776349215.679051,,,,,,,,,,,,,,,,695000000.000000000,132.000000000,-0.708821321,4.668744993,1.099277015
1776349215.681948,,,,,,,,,,,681898660.000000000,1776349215.000000000,-2.155564394,5.132683876,0.000000000,,,,,
1776349215.683449,,,,,,683402381.000000000,1776349215.000000000,-1.284770557,3.036461855,0.000000000,,,,,,,,,,
1776349215.684006,,,,,,,,,,,,,,,,700000000.000000000,132.000000000,-0.780486669,5.285171511,1.099237709
1776349215.686947,,,,,,,,,,,686898303.000000000,1776349215.000000000,-2.100541658,6.034479752,0.000000000,,,,,
1776349215.688465,,,,,,688408536.000000000,1776349215.000000000,-1.257199115,3.800811970,0.000000000,,,,,,,,,,
1776349215.689146,,,,,,,,,,,,,,,,705000000.000000000,132.000000000,-0.852100242,5.900207968,1.099192954
1776349215.691937,,,,,,,,,,,691895701.000000000,1776349215.000000000,-2.029381390,6.856411833,0.000000000,,,,,
1776349215.693456,,,,,,693402517.000000000,1776349215.000000000,-1.227174256,4.454957711,0.000000000,,,,,,,,,,
1776349215.694015,,,,,,,,,,,,,,,,710000000.000000000,132.000000000,-0.923697390,6.513755794,1.099142812
1776349215.696960,,,,,,,,,,,696908999.000000000,1776349215.000000000,-1.950162824,7.568878671,0.000000000,,,,,
1776349215.698466,,,,,,698403572.000000000,1776349215.000000000,-1.195139563,5.009795280,0.000000000,,,,,,,,,,
1776349215.699067,,,,,,,,,,,,,,,,715000000.000000000,132.000000000,-0.995292785,7.125704472,1.099087328
1776349215.701947,,,,,,,,,,,701900646.000000000,1776349215.000000000,-1.867382486,8.164741021,0.000000000,,,,,
1776349215.703501,,,,,,703407242.000000000,1776349215.000000000,-1.161488703,5.475303235,0.000000000,,,,,,,,,,
1776349215.704335,,,,,,,,,,,,,,,,720000000.000000000,132.000000000,-1.066872336,7.735951217,1.099026558
1776349215.706941,,,,,,,,,,,706897492.000000000,1776349215.000000000,-1.783305669,8.647159223,0.000000000,,,,,
1776349215.708456,,,,,,708406143.000000000,1776349215.000000000,-1.126593103,5.860634227,0.000000000,,,,,,,,,,
1776349215.708911,,,,,,,,,,,,,,,,725000000.000000000,132.000000000,-1.138401821,8.344388810,1.098960556
1776349215.711916,720000000.000000000,132.000000000,-0.854141393,8.121435971,1.000000000,,,,,,,,,,,,,,,
1776349215.711965,,,,,,,,,,,711903497.000000000,1776349215.000000000,-1.698867145,9.023980822,0.000000000,,,,,
1776349215.713454,,,,,,713403501.000000000,1776349215.000000000,-1.168336845,6.826749305,0.000000000,,,,,,,,,,
1776349215.713978,,,,,,,,,,,,,,,,730000000.000000000,132.000000000,-1.209855009,8.950903670,1.098889383
1776349215.716946,,,,,,,,,,,716898049.000000000,1776349215.000000000,-1.665331347,9.728579558,0.000000000,,,,,
1776349215.718453,,,,,,718402111.000000000,1776349215.000000000,-1.201551851,7.662414390,0.000000000,,,,,,,,,,
1776349215.718940,,,,,,,,,,,,,,,,735000000.000000000,132.000000000,-1.281234696,9.555365616,1.098813115
1776349215.721956,,,,,,,,,,,721903943.000000000,1776349215.000000000,-1.652784778,10.512152801,0.000000000,,,,,
1776349215.723455,,,,,,723404568.000000000,1776349215.000000000,-1.227143481,8.380228605,0.000000000,,,,,,,,,,
1776349215.723962,,,,,,,,,,,,,,,,740000000.000000000,132.000000000,-1.352572010,10.157671972,1.098731810
1776349215.726953,,,,,,,,,,,726898676.000000000,1776349215.000000000,-1.646621637,11.259066028,0.000000000,,,,,
1776349215.728474,,,,,,728401425.000000000,1776349215.000000000,-1.245966854,8.991763928,0.000000000,,,,,,,,,,
1776349215.729209,,,,,,,,,,,,,,,,745000000.000000000,132.000000000,-1.423905944,10.757723530,1.098645484
1776349215.731953,,,,,,,,,,,731900412.000000000,1776349215.000000000,-1.639881488,11.919619062,0.000000000,,,,,
1776349215.733445,,,,,,733400446.000000000,1776349215.000000000,-1.258801846,9.507635965,0.000000000,,,,,,,,,,
1776349215.733855,,,,,,,,,,,,,,,,750000000.000000000,132.000000000,-1.495258422,11.355420621,1.098554138
1776349215.736954,,,,,,,,,,,736901477.000000000,1776349215.000000000,-1.629543751,12.476140192,0.000000000,,,,,
1776349215.738459,,,,,,738404066.000000000,1776349215.000000000,-1.266342663,9.937580046,0.000000000,,,,,,,,,,
1776349215.738923,,,,,,,,,,,,,,,,755000000.000000000,132.000000000,-1.566609365,11.950643705,1.098457804
1776349215.741951,,,,,,,,,,,741902842.000000000,1776349215.000000000,-1.615009945,12.926721092,0.000000000,,,,,
1776349215.743460,,,,,,743402976.000000000,1776349215.000000000,-1.269208149,10.290499667,0.000000000,,,,,,,,,,
1776349215.743921,,,,,,,,,,,,,,,,760000000.000000000,132.000000000,-1.637921886,12.543278513,1.098356539
1776349215.746949,,,,,,,,,,,746900230.000000000,1776349215.000000000,-1.596112886,13.276473626,0.000000000,,,,,
1776349215.748464,,,,,,748409522.000000000,1776349215.000000000,-1.267992465,10.574550642,0.000000000,,,,,,,,,,
1776349215.748936,,,,,,,,,,,,,,,,765000000.000000000,132.000000000,-1.709172388,13.133210105,1.098250397
1776349215.751983,,,,,,,,,,,751925431.000000000,1776349215.000000000,-1.572678567,13.533440202,0.000000000,,,,,
1776349215.752860,760000000.000000000,132.000000000,-1.436076498,12.872911854,1.000000000,,,,,,,,,,,,,,,
1776349215.753451,,,,,,753395638.000000000,1776349215.000000000,-1.350525037,11.509910734,0.000000000,,,,,,,,,,
1776349215.754050,,,,,,,,,,,,,,,,770000000.000000000,132.000000000,-1.780366061,13.720329768,1.098139413
1776349215.756944,,,,,,,,,,,756895637.000000000,1776349215.000000000,-1.601949910,14.170048779,0.000000000,,,,,
1776349215.758474,,,,,,758404718.000000000,1776349215.000000000,-1.421094616,12.318222646,0.000000000,,,,,,,,,,
1776349215.759023,,,,,,,,,,,,,,,,775000000.000000000,132.000000000,-1.851529477,14.304524953,1.098023608
1776349215.761950,,,,,,,,,,,761899628.000000000,1776349215.000000000,-1.650351194,14.912711142,0.000000000,,,,,
1776349215.763464,,,,,,763406274.000000000,1776349215.000000000,-1.480857726,13.011823262,0.000000000,,,,,,,,,,
1776349215.764055,,,,,,,,,,,,,,,,780000000.000000000,132.000000000,-1.922689119,14.885693034,1.097902984
1776349215.767148,,,,,,,,,,,766905041.000000000,1776349215.000000000,-1.701557226,15.633406866,0.000000000,,,,,
1776349215.768448,,,,,,768403572.000000000,1776349215.000000000,-1.530916760,13.602027312,0.000000000,,,,,,,,,,
1776349215.768883,,,,,,,,,,,,,,,,785000000.000000000,132.000000000,-1.993849003,15.463725890,1.097777544
1776349215.771952,,,,,,,,,,,771899543.000000000,1776349215.000000000,-1.747932114,16.276075145,0.000000000,,,,,
1776349215.773477,,,,,,773405609.000000000,1776349215.000000000,-1.572280978,14.099211614,0.000000000,,,,,,,,,,
1776349215.773975,,,,,,,,,,,,,,,,790000000.000000000,132.000000000,-2.064983107,16.038510461,1.097647317
1776349215.776962,,,,,,,,,,,776909856.000000000,1776349215.000000000,-1.786468928,16.819970604,0.000000000,,,,,
1776349215.778463,,,,,,778402485.000000000,1776349215.000000000,-1.605854928,14.512884084,0.000000000,,,,,,,,,,
1776349215.778984,,,,,,,,,,,,,,,,795000000.000000000,132.000000000,-2.136052329,16.609926265,1.097512362
1776349215.781960,,,,,,,,,,,781902925.000000000,1776349215.000000000,-1.816556875,17.261376643,0.000000000,,,,,
1776349215.783475,,,,,,783404993.000000000,1776349215.000000000,-1.632463814,14.851750275,0.000000000,,,,,,,,,,
1776349215.784097,,,,,,,,,,,,,,,,800000000.000000000,132.000000000,-2.207032407,17.177866829,1.097372713
1776349215.786941,,,,,,,,,,,786892569.000000000,1776349215.000000000,-1.838269764,17.604481799,0.000000000,,,,,
1776349215.788454,,,,,,788408883.000000000,1776349215.000000000,-1.652883565,15.123775297,0.000000000,,,,,,,,,,
1776349215.788939,,,,,,,,,,,,,,,,805000000.000000000,132.000000000,-2.277934242,17.742223954,1.097228380
1776349215.791184,800000000.000000000,132.000000000,-2.022537575,17.485831945,1.000000000,,,,,,,,,,,,,,,
1776349215.791943,,,,,,,,,,,791899254.000000000,1776349215.000000000,-1.908690298,18.306447934,0.000000000,,,,,
1776349215.793455,,,,,,793407233.000000000,1776349215.000000000,-1.755790925,16.028176847,0.000000000,,,,,,,,,,
1776349215.793977,,,,,,,,,,,,,,,,810000000.000000000,132.000000000,-2.348789699,18.302888944,1.097079364
1776349215.796952,,,,,,,,,,,796895089.000000000,1776349215.000000000,-1.994057271,19.101673494,0.000000000,,,,,
1776349215.798472,,,,,,798407406.000000000,1776349215.000000000,-1.844868674,16.809336316,0.000000000,,,,,,,,,,
1776349215.799010,,,,,,,,,,,,,,,,815000000.000000000,132.000000000,-2.419616832,18.859745945,1.096925689
1776349215.801940,,,,,,,,,,,801897867.000000000,1776349215.000000000,-2.078647617,19.866304184,0.000000000,,,,,
1776349215.803449,,,,,,803405996.000000000,1776349215.000000000,-1.921434600,17.479250913,0.000000000,,,,,,,,,,
1776349215.803911,,,,,,,,,,,,,,,,820000000.000000000,132.000000000,-2.490403378,19.412681927,1.096767391
1776349215.806963,,,,,,,,,,,806904312.000000000,1776349215.000000000,-2.155226375,20.546577119,0.000000000,,,,,
1776349215.808451,,,,,,808404366.000000000,1776349215.000000000,-1.986730737,18.048930881,0.000000000,,,,,,,,,,
1776349215.808875,,,,,,,,,,,,,,,,825000000.000000000,132.000000000,-2.561110317,19.961581361,1.096604528
1776349215.811950,,,,,,,,,,,811898825.000000000,1776349215.000000000,-2.220502256,21.123015993,0.000000000,,,,,
1776349215.813463,,,,,,813405722.000000000,1776349215.000000000,-2.041895516,18.528471617,0.000000000,,,,,,,,,,
1776349215.814259,,,,,,,,,,,,,,,,830000000.000000000,132.000000000,-2.631699530,20.506331818,1.096437158
1776349215.816942,,,,,,,,,,,816895291.000000000,1776349215.000000000,-2.273973942,21.592765611,0.000000000,,,,,
1776349215.818474,,,,,,818411555.000000000,1776349215.000000000,-2.087929764,18.927116477,0.000000000,,,,,,,,,,
1776349215.819036,,,,,,,,,,,,,,,,835000000.000000000,132.000000000,-2.702152101,21.046818333,1.096265340
1776349215.822008,,,,,,,,,,,821953794.000000000,1776349215.000000000,-2.316505565,21.960657553,0.000000000,,,,,
1776349215.823447,,,,,,823404284.000000000,1776349215.000000000,-2.125754844,19.253328471,0.000000000,,,,,,,,,,
1776349215.823895,,,,,,,,,,,,,,,,840000000.000000000,132.000000000,-2.772472975,21.582935268,1.096089095
1776349215.826967,,,,,,,,,,,826908421.000000000,1776349215.000000000,-2.348813086,22.234738635,0.000000000,,,,,
1776349215.828503,,,,,,828432220.000000000,1776349215.000000000,-2.156254454,19.514852363,0.000000000,,,,,,,,,,
1776349215.829234,,,,,,,,,,,,,,,,845000000.000000000,132.000000000,-2.842681198,22.114573467,1.095908447
1776349215.831012,840000000.000000000,132.000000000,-2.608665398,21.860656605,1.000000000,,,,,,,,,,,,,,,
1776349215.831956,,,,,,,,,,,831902072.000000000,1776349215.000000000,-2.428550335,22.850678419,0.000000000,,,,,
1776349215.833468,,,,,,833404761.000000000,1776349215.000000000,-2.268154726,20.374988316,0.000000000,,,,,,,,,,
1776349215.834072,,,,,,,,,,,,,,,,850000000.000000000,132.000000000,-2.912789143,22.641619913,1.095723439
1776349215.836948,,,,,,,,,,,836895352.000000000,1776349215.000000000,-2.521829966,23.557290863,0.000000000,,,,,
1776349215.838450,,,,,,838402109.000000000,1776349215.000000000,-2.365303743,21.117283761,0.000000000,,,,,,,,,,
1776349215.839182,,,,,,,,,,,,,,,,855000000.000000000,132.000000000,-2.982784997,23.163958990,1.095534142
1776349215.841959,,,,,,,,,,,841905054.000000000,1776349215.000000000,-2.613283907,24.237567491,0.000000000,,,,,
1776349215.843457,,,,,,843400479.000000000,1776349215.000000000,-2.449090508,21.753250784,0.000000000,,,,,,,,,,
1776349215.844086,,,,,,,,,,,,,,,,860000000.000000000,132.000000000,-3.052641101,23.681478991,1.095340621
1776349215.846950,,,,,,,,,,,846900668.000000000,1776349215.000000000,-2.695809527,24.840635964,0.000000000,,,,,
1776349215.848444,,,,,,848402836.000000000,1776349215.000000000,-2.520833306,22.293457140,0.000000000,,,,,,,,,,
1776349215.848927,,,,,,,,,,,,,,,,865000000.000000000,132.000000000,-3.122325259,24.194071728,1.095142945
1776349215.851957,,,,,,,,,,,851900941.000000000,1776349215.000000000,-2.766345569,25.347956008,0.000000000,,,,,
1776349215.853456,,,,,,853401847.000000000,1776349215.000000000,-2.581740749,22.747590100,0.000000000,,,,,,,,,,
1776349215.853954,,,,,,,,,,,,,,,,870000000.000000000,132.000000000,-3.191813003,24.701636976,1.094941150
1776349215.856950,,,,,,,,,,,856897177.000000000,1776349215.000000000,-2.824448829,25.756841604,0.000000000,,,,,
1776349215.858477,,,,,,858413913.000000000,1776349215.000000000,-2.632888519,23.124511738,0.000000000,,,,,,,,,,
1776349215.859045,,,,,,,,,,,,,,,,875000000.000000000,132.000000000,-3.261101268,25.204072991,1.094735260
1776349215.861968,,,,,,,,,,,861909693.000000000,1776349215.000000000,-2.870937051,26.071740962,0.000000000,,,,,
1776349215.863464,,,,,,863413705.000000000,1776349215.000000000,-2.675265567,23.432341352,0.000000000,,,,,,,,,,
1776349215.863975,,,,,,,,,,,,,,,,880000000.000000000,132.000000000,-3.330191102,25.701274176,1.094525308
1776349215.866964,,,,,,,,,,,866907592.000000000,1776349215.000000000,-2.906619900,26.300173767,0.000000000,,,,,
1776349215.868468,,,,,,868410261.000000000,1776349215.000000000,-2.709807260,23.678504968,0.000000000,,,,,,,,,,
1776349215.869144,,,,,,,,,,,,,,,,885000000.000000000,132.000000000,-3.399076130,26.193126550,1.094311380
1776349215.870782,880000000.000000000,132.000000000,-3.217483959,26.117059737,1.000000000,,,,,,,,,,,,,,,
1776349215.871943,,,,,,,,,,,871899129.000000000,1776349215.000000000,-2.991359081,26.865660850,0.000000000,,,,,
1776349215.873454,,,,,,873400886.000000000,1776349215.000000000,-2.828690830,24.508246250,0.000000000,,,,,,,,,,
1776349215.873963,,,,,,,,,,,,,,,,890000000.000000000,132.000000000,-3.467733530,26.679515616,1.094093596
1776349215.876945,,,,,,,,,,,876894914.000000000,1776349215.000000000,-3.090297372,27.523698664,0.000000000,,,,,
1776349215.878453,,,,,,878397854.000000000,1776349215.000000000,-2.932052036,25.224406614,0.000000000,,,,,,,,,,
1776349215.879115,,,,,,,,,,,,,,,,895000000.000000000,132.000000000,-3.536133380,27.160335705,1.093872058
1776349215.881942,,,,,,,,,,,881897823.000000000,1776349215.000000000,-3.187180410,28.159876147,0.000000000,,,,,
1776349215.883453,,,,,,883405591.000000000,1776349215.000000000,-3.021369002,25.838115276,0.000000000,,,,,,,,,,
1776349215.884028,,,,,,,,,,,,,,,,900000000.000000000,132.000000000,-3.604245998,27.635486691,1.093646828
1776349215.886951,,,,,,,,,,,886902053.000000000,1776349215.000000000,-3.274671043,28.724398847,0.000000000,,,,,
1776349215.888450,,,,,,888402288.000000000,1776349215.000000000,-3.098021753,26.359569891,0.000000000,,,,,,,,,,
1776349215.888910,,,,,,,,,,,,,,,,905000000.000000000,132.000000000,-3.672053584,28.104868129,1.093417970
1776349215.891945,,,,,,,,,,,891899792.000000000,1776349215.000000000,-3.349519111,29.199013061,0.000000000,,,,,
1776349215.893468,,,,,,893404074.000000000,1776349215.000000000,-3.163275724,26.798117332,0.000000000,,,,,,,,,,
1776349215.894114,,,,,,,,,,,,,,,,910000000.000000000,132.000000000,-3.739541551,28.568380039,1.093185556
1776349215.897000,,,,,,,,,,,896902700.000000000,1776349215.000000000,-3.411469168,29.580709063,0.000000000,,,,,
1776349215.898458,,,,,,898407513.000000000,1776349215.000000000,-3.218249929,27.162313451,0.000000000,,,,,,,,,,
1776349215.898984,,,,,,,,,,,,,,,,915000000.000000000,132.000000000,-3.806694210,29.025915221,1.092949698
1776349215.901969,,,,,,,,,,,901912111.000000000,1776349215.000000000,-3.461267480,29.873613770,0.000000000,,,,,
1776349215.903457,,,,,,903411313.000000000,1776349215.000000000,-3.263988322,27.459985845,0.000000000,,,,,,,,,,
1776349215.903909,,,,,,,,,,,,,,,,920000000.000000000,132.000000000,-3.873491100,29.477368358,1.092710511
1776349215.906958,,,,,,,,,,,906907114.000000000,1776349215.000000000,-3.499765813,30.084806110,0.000000000,,,,,
1776349215.908461,,,,,,908409823.000000000,1776349215.000000000,-3.301470746,27.698296469,0.000000000,,,,,,,,,,
1776349215.909087,,,,,,,,,,,,,,,,925000000.000000000,132.000000000,-3.939906098,29.922635830,1.092468125
1776349215.911173,920000000.000000000,132.000000000,-3.782139577,29.808036547,1.000000000,,,,,,,,,,,,,,,
1776349215.911943,,,,,,,,,,,911898882.000000000,1776349215.000000000,-3.582807852,30.582238021,0.000000000,,,,,
1776349215.913481,,,,,,913409165.000000000,1776349215.000000000,-3.416290804,28.437432911,0.000000000,,,,,,,,,,
1776349215.914275,,,,,,,,,,,,,,,,930000000.000000000,132.000000000,-4.005911519,30.361619791,1.092222649
1776349215.916942,,,,,,,,,,,916894486.000000000,1776349215.000000000,-3.677921930,31.154454612,0.000000000,,,,,
1776349215.918476,,,,,,918408817.000000000,1776349215.000000000,-3.515939371,29.073445367,0.000000000,,,,,,,,,,
1776349215.919209,,,,,,,,,,,,,,,,935000000.000000000,132.000000000,-4.071480958,30.794226073,1.091974174
1776349215.922015,,,,,,,,,,,921954752.000000000,1776349215.000000000,-3.770198294,31.703115607,0.000000000,,,,,
1776349215.923459,,,,,,923406706.000000000,1776349215.000000000,-3.601869246,29.616516607,0.000000000,,,,,,,,,,
1776349215.923945,,,,,,,,,,,,,,,,940000000.000000000,132.000000000,-4.136584858,31.220365391,1.091722760
1776349215.926945,,,,,,,,,,,926899281.000000000,1776349215.000000000,-3.852952300,32.185660178,0.000000000,,,,,
1776349215.929339,,,,,,928407991.000000000,1776349215.000000000,-3.675436600,30.075989046,0.000000000,,,,,,,,,,
1776349215.929356,,,,,,,,,,,,,,,,945000000.000000000,132.000000000,-4.201192627,31.639944670,1.091468494
1776349215.931951,,,,,,,,,,,931900125.000000000,1776349215.000000000,-3.923450114,32.586976382,0.000000000,,,,,
1776349215.933467,,,,,,933405940.000000000,1776349215.000000000,-3.737884612,30.460421293,0.000000000,,,,,,,,,,
1776349215.933936,,,,,,,,,,,,,,,,950000000.000000000,132.000000000,-4.265271092,32.052868610,1.091211492
1776349215.936947,,,,,,,,,,,936899427.000000000,1776349215.000000000,-3.981354255,32.904891265,0.000000000,,,,,
1776349215.938461,,,,,,938403719.000000000,1776349215.000000000,-3.790329075,30.777656053,0.000000000,,,,,,,,,,
1776349215.938967,,,,,,,,,,,,,,,,955000000.000000000,132.000000000,-4.328789587,32.459038543,1.090951902
1776349215.941969,,,,,,,,,,,941906613.000000000,1776349215.000000000,-4.027443621,33.143418656,0.000000000,,,,,
1776349215.943468,,,,,,943410595.000000000,1776349215.000000000,-3.833795119,31.034856656,0.000000000,,,,,,,,,,
1776349215.944045,,,,,,,,,,,,,,,,960000000.000000000,132.000000000,-4.391720052,32.858361486,1.090689846
1776349215.947043,,,,,,,,,,,946909972.000000000,1776349215.000000000,-4.062596657,33.309152260,0.000000000,,,,,
1776349215.948473,,,,,,948414495.000000000,1776349215.000000000,-3.869241704,31.238567417,0.000000000,,,,,,,,,,
1776349215.948973,,,,,,,,,,,,,,,,965000000.000000000,132.000000000,-4.454038217,33.250747579,1.090425440
1776349215.951953,,,,,,,,,,,951901810.000000000,1776349215.000000000,-4.087774286,33.409403603,0.000000000,,,,,
1776349215.952488,960000000.000000000,132.000000000,-4.354086126,33.274965331,1.000000000,,,,,,,,,,,,,,,
1776349215.953469,,,,,,953406432.000000000,1776349215.000000000,-3.983336712,31.914800924,0.000000000,,,,,,,,,,
1776349215.954000,,,,,,,,,,,,,,,,970000000.000000000,132.000000000,-4.515712992,33.636109398,1.090158798
1776349215.956949,,,,,,,,,,,956895330.000000000,1776349215.000000000,-4.159801826,33.790045883,0.000000000,,,,,
1776349215.958465,,,,,,958403159.000000000,1776349215.000000000,-4.082360469,32.496096084,0.000000000,,,,,,,,,,
1776349215.959217,,,,,,,,,,,,,,,,975000000.000000000,132.000000000,-4.576708340,34.014355807,1.089890068
1776349215.961947,,,,,,,,,,,961902537.000000000,1776349215.000000000,-4.245804062,34.251687649,0.000000000,,,,,
1776349215.963446,,,,,,963405406.000000000,1776349215.000000000,-4.167770316,32.991892684,0.000000000,,,,,,,,,,
1776349215.964110,,,,,,,,,,,,,,,,980000000.000000000,132.000000000,-4.636989340,34.385397087,1.089619394
1776349215.966951,,,,,,,,,,,966902860.000000000,1776349215.000000000,-4.330269113,34.701139153,0.000000000,,,,,
1776349215.968475,,,,,,968403485.000000000,1776349215.000000000,-4.240912007,33.410825813,0.000000000,,,,,,,,,,
1776349215.968921,,,,,,,,,,,,,,,,985000000.000000000,132.000000000,-4.696521947,34.749148340,1.089346920
1776349215.971942,,,,,,,,,,,971899497.000000000,1776349215.000000000,-4.406227082,35.097598038,0.000000000,,,,,
1776349215.973453,,,,,,973404200.000000000,1776349215.000000000,-4.303019155,33.760803877,0.000000000,,,,,,,,,,
1776349215.973897,,,,,,,,,,,,,,,,990000000.000000000,132.000000000,-4.755272268,35.105521954,1.089072824
1776349215.976950,,,,,,,,,,,976900512.000000000,1776349215.000000000,-4.471157134,35.426008755,0.000000000,,,,,
1776349215.978469,,,,,,978411456.000000000,1776349215.000000000,-4.355211027,34.049060460,0.000000000,,,,,,,,,,
1776349215.979101,,,,,,,,,,,,,,,,995000000.000000000,132.000000000,-4.813208072,35.454430771,1.088797280
1776349215.981978,,,,,,,,,,,981903420.000000000,1776349215.000000000,-4.524614371,35.683690235,0.000000000,,,,,
1776349215.983460,,,,,,983408573.000000000,1776349215.000000000,-4.398515949,34.282210139,0.000000000,,,,,,,,,,
1776349215.983964,,,,,,,,,,,,,,,,0.000000000,133.000000000,-4.870295620,35.795788587,1.088520460
1776349215.986965,,,,,,,,,,,986904064.000000000,1776349215.000000000,-4.567005275,35.873689778,0.000000000,,,,,
1776349215.988497,,,,,,988424376.000000000,1776349215.000000000,-4.433881908,34.466296294,0.000000000,,,,,,,,,,
1776349215.989324,,,,,,,,,,,,,,,,5000000.000000000,133.000000000,-4.926498149,36.129512042,1.088242547
1776349215.991679,0.000000000,133.000000000,-4.629868234,36.145543553,1.000000000,,,,,,,,,,,,,,,
1776349215.991959,,,,,,,,,,,991900891.000000000,1776349215.000000000,-4.626089083,36.281490011,0.000000000,,,,,
1776349215.993460,,,,,,993404091.000000000,1776349215.000000000,-4.503542137,35.037419804,0.000000000,,,,,,,,,,
1776349215.994000,,,,,,,,,,,,,,,,10000000.000000000,133.000000000,-4.981776515,36.455517662,1.087963744
1776349215.996942,,,,,,,,,,,996893089.000000000,1776349215.000000000,-4.686407502,36.742516206,0.000000000,,,,,
1776349215.998475,,,,,,998406077.000000000,1776349215.000000000,-4.562719194,35.526262516,0.000000000,,,,,,,,,,
1776349215.999086,,,,,,,,,,,,,,,,15000000.000000000,133.000000000,-5.036090680,36.773720279,1.087684272
1776349216.001947,,,,,,,,,,,1898201.000000000,1776349216.000000000,-4.741024859,37.180592382,0.000000000,,,,,
1776349216.003460,,,,,,3408875.000000000,1776349216.000000000,-4.612488865,35.941089584,0.000000000,,,,,,,,,,
1776349216.003974,,,,,,,,,,,,,,,,20000000.000000000,133.000000000,-5.089399675,37.084038787,1.087404336
1776349216.006944,,,,,,,,,,,6897463.000000000,1776349216.000000000,-4.787198058,37.563092257,0.000000000,,,,,
1776349216.008448,,,,,,8402126.000000000,1776349216.000000000,-4.653834221,36.289475548,0.000000000,,,,,,,,,,
1776349216.008852,,,,,,,,,,,,,,,,25000000.000000000,133.000000000,-5.141662872,37.386395363,1.087124148
1776349216.011949,,,,,,,,,,,11900231.000000000,1776349216.000000000,-4.824283947,37.878662147,0.000000000,,,,,
1776349216.013462,,,,,,13403561.000000000,1776349216.000000000,-4.687654030,36.578352782,0.000000000,,,,,,,,,,
1776349216.014160,,,,,,,,,,,,,,,,30000000.000000000,133.000000000,-5.192835388,37.680713832,1.086843931
1776349216.016944,,,,,,,,,,,16895205.000000000,1776349216.000000000,-4.852506380,38.126410161,0.000000000,,,,,
1776349216.018469,,,,,,18402612.000000000,1776349216.000000000,-4.714775783,36.814056024,0.000000000,,,,,,,,,,
1776349216.018958,,,,,,,,,,,,,,,,35000000.000000000,133.000000000,-5.242871187,37.966918039,1.086563918
1776349216.021957,,,,,,,,,,,21899996.000000000,1776349216.000000000,-4.872420680,38.309744434,0.000000000,,,,,
1776349216.023452,,,,,,23404669.000000000,1776349216.000000000,-4.735954972,37.002392163,0.000000000,,,,,,,,,,
1776349216.024005,,,,,,,,,,,,,,,,40000000.000000000,133.000000000,-5.291722608,38.244930860,1.086284354
1776349216.026958,,,,,,,,,,,26903937.000000000,1776349216.000000000,-4.884856967,38.434244603,0.000000000,,,,,
1776349216.028516,,,,,,28419139.000000000,1776349216.000000000,-4.751872344,37.148644388,0.000000000,,,,,,,,,,
1776349216.029318,,,,,,,,,,,,,,,,45000000.000000000,133.000000000,-5.339347086,38.514678047,1.086005500
1776349216.030997,40000000.000000000,133.000000000,-5.093913529,38.565384511,1.000000000,,,,,,,,,,,,,,,
1776349216.031965,,,,,,,,,,,31900814.000000000,1776349216.000000000,-4.936017478,38.742039070,0.000000000,,,,,
1776349216.033479,,,,,,33413161.000000000,1776349216.000000000,-4.832754510,37.620605345,0.000000000,,,,,,,,,,
1776349216.034102,,,,,,,,,,,,,,,,50000000.000000000,133.000000000,-5.385706716,38.776089497,1.085727609
1776349216.036943,,,,,,,,,,,36896168.000000000,1776349216.000000000,-4.999266324,39.095278528,0.000000000,,,,,
1776349216.038500,,,,,,38407583.000000000,1776349216.000000000,-4.902494321,38.022788755,0.000000000,,,,,,,,,,
1776349216.039181,,,,,,,,,,,,,,,,55000000.000000000,133.000000000,-5.430772974,39.029097412,1.085450902
1776349216.041960,,,,,,,,,,,41907081.000000000,1776349216.000000000,-5.061673278,39.430193863,0.000000000,,,,,
1776349216.043426,,,,,,43362070.000000000,1776349216.000000000,-4.962223995,38.362292894,0.000000000,,,,,,,,,,
1776349216.044078,,,,,,,,,,,,,,,,60000000.000000000,133.000000000,-5.474513978,39.273633508,1.085175606
1776349216.046948,,,,,,,,,,,46903397.000000000,1776349216.000000000,-5.117722036,39.719506986,0.000000000,,,,,
1776349216.048455,,,,,,48404964.000000000,1776349216.000000000,-5.012954648,38.645621375,0.000000000,,,,,,,,,,
1776349216.048928,,,,,,,,,,,,,,,,65000000.000000000,133.000000000,-5.516888294,39.509629760,1.084901987
1776349216.051954,,,,,,,,,,,51903099.000000000,1776349216.000000000,-5.165455364,39.953879190,0.000000000,,,,,
