__time,/uav/cv/swing_angle/world_frame/cartesian/header/stamp/nanosec,/uav/cv/swing_angle/world_frame/cartesian/header/stamp/sec,/uav/cv/swing_angle/world_frame/cartesian/vector/x,/uav/cv/swing_angle/world_frame/cartesian/vector/y,/uav/cv/swing_angle/world_frame/cartesian/vector/z,/uav/eso/swing_angle/world_frame/cartesian/header/stamp/nanosec,/uav/eso/swing_angle/world_frame/cartesian/header/stamp/sec,/uav/eso/swing_angle/world_frame/cartesian/vector/x,/uav/eso/swing_angle/world_frame/cartesian/vector/y,/uav/eso/swing_angle/world_frame/cartesian/vector/z,/uav/eso_fusion/swing_angle/world_frame/cartesian/header/stamp/nanosec,/uav/eso_fusion/swing_angle/world_frame/cartesian/header/stamp/sec,/uav/eso_fusion/swing_angle/world_frame/cartesian/vector/x,/uav/eso_fusion/swing_angle/world_frame/cartesian/vector/y,/uav/eso_fusion/swing_angle/world_frame/cartesian/vector/z,/uav/truth/swing_angle/world_frame/cartesian/header/stamp/nanosec,/uav/truth/swing_angle/world_frame/cartesian/header/stamp/sec,/uav/truth/swing_angle/world_frame/cartesian/vector/x,/uav/truth/swing_angle/world_frame/cartesian/vector/y,/uav/truth/swing_angle/world_frame/cartesian/vector/z
1776351911.528586,,,,,,,,,,,528539611.000000000,1776351911.000000000,-1.363530867,12.791346996,0.000000000,,,,,
1776351911.528634,,,,,,528601258.000000000,1776351911.000000000,-1.438517116,12.384533904,0.000000000,,,,,,,,,,
1776351911.530637,,,,,,,,,,,,,,,,15000000.000000000,56.000000000,-1.594819318,12.531980214,1.098400641
1776351911.533593,,,,,,,,,,,533545567.000000000,1776351911.000000000,-1.366893676,12.929789368,0.000000000,,,,,
1776351911.533834,,,,,,533601583.000000000,1776351911.000000000,-1.441438595,12.523185667,0.000000000,,,,,,,,,,
1776351911.535604,,,,,,,,,,,,,,,,20000000.000000000,56.000000000,-1.585640273,12.623493270,1.098376305
1776351911.538613,,,,,,,,,,,538557442.000000000,1776351911.000000000,-1.370990627,13.050894642,0.000000000,,,,,
1776351911.538665,,,,,,538620993.000000000,1776351911.000000000,-1.444244358,12.639916221,0.000000000,,,,,,,,,,
1776351911.540659,,,,,,,,,,,,,,,,25000000.000000000,56.000000000,-1.576034222,12.712148584,1.098352427
1776351911.543609,,,,,,,,,,,543544986.000000000,1776351911.000000000,-1.375453875,13.150939764,0.000000000,,,,,
1776351911.543658,,,,,,543609348.000000000,1776351911.000000000,-1.446941690,12.737005528,0.000000000,,,,,,,,,,
1776351911.545767,,,,,,,,,,,,,,,,30000000.000000000,56.000000000,-1.566000697,12.797921222,1.098329035
1776351911.548617,,,,,,,,,,,548543950.000000000,1776351911.000000000,-1.379946568,13.229304671,0.000000000,,,,,
1776351911.548650,,,,,,548598715.000000000,1776351911.000000000,-1.449544351,12.816545964,0.000000000,,,,,,,,,,
1776351911.550617,,,,,,,,,,,,,,,,35000000.000000000,56.000000000,-1.555539888,12.880785762,1.098306161
1776351911.553607,,,,,,,,,,,553544316.000000000,1776351911.000000000,-1.384389965,13.287189141,0.000000000,,,,,
1776351911.553636,,,,,,553601214.000000000,1776351911.000000000,-1.452056346,12.880435482,0.000000000,,,,,,,,,,
1776351911.555671,,,,,,,,,,,,,,,,40000000.000000000,56.000000000,-1.544655262,12.960719166,1.098283831
1776351911.558605,,,,,,,,,,,558541486.000000000,1776351911.000000000,-1.388738546,13.326345782,0.000000000,,,,,
1776351911.558647,,,,,,558599807.000000000,1776351911.000000000,-1.454482542,12.930412775,0.000000000,,,,,,,,,,
1776351911.560760,,,,,,,,,,,,,,,,45000000.000000000,56.000000000,-1.533353345,13.037700709,1.098262065
1776351911.563607,,,,,,,,,,,563543806.000000000,1776351911.000000000,-1.392949069,13.348713425,0.000000000,,,,,
1776351911.563655,,,,,,563602006.000000000,1776351911.000000000,-1.456827428,12.968063173,0.000000000,,,,,,,,,,
1776351911.564031,40000000.000000000,56.000000000,-1.359962470,13.336327954,1.000000000,,,,,,,,,,,,,,,
1776351911.565523,,,,,,,,,,,,,,,,50000000.000000000,56.000000000,-1.521645365,13.111713864,1.098240870
1776351911.568588,,,,,,,,,,,568537891.000000000,1776351911.000000000,-1.380293029,13.424420591,0.000000000,,,,,
1776351911.568630,,,,,,568592335.000000000,1776351911.000000000,-1.433103052,13.099594423,0.000000000,,,,,,,,,,
1776351911.570441,,,,,,,,,,,,,,,,55000000.000000000,56.000000000,-1.509538451,13.182742630,1.098220252
1776351911.573610,,,,,,,,,,,573539058.000000000,1776351911.000000000,-1.360912475,13.513734119,0.000000000,,,,,
1776351911.573632,,,,,,573602658.000000000,1776351911.000000000,-1.411956315,13.210910205,0.000000000,,,,,,,,,,
1776351911.575652,,,,,,,,,,,,,,,,60000000.000000000,56.000000000,-1.497037194,13.250765214,1.098200237
1776351911.578612,,,,,,,,,,,578545124.000000000,1776351911.000000000,-1.339816106,13.598295474,0.000000000,,,,,
1776351911.578653,,,,,,578609676.000000000,1776351911.000000000,-1.393166396,13.304102388,0.000000000,,,,,,,,,,
1776351911.580595,,,,,,,,,,,,,,,,65000000.000000000,56.000000000,-1.484148442,13.315759426,1.098180856
1776351911.583613,,,,,,,,,,,583540361.000000000,1776351911.000000000,-1.319443315,13.670250716,0.000000000,,,,,
1776351911.583656,,,,,,583606245.000000000,1776351911.000000000,-1.376529230,13.381084234,0.000000000,,,,,,,,,,
1776351911.585628,,,,,,,,,,,,,,,,70000000.000000000,56.000000000,-1.470875833,13.377706769,1.098162130
1776351911.588584,,,,,,,,,,,588531351.000000000,1776351911.000000000,-1.300841360,13.726855742,0.000000000,,,,,
1776351911.588634,,,,,,588592807.000000000,1776351911.000000000,-1.361863414,13.443602787,0.000000000,,,,,,,,,,
1776351911.590567,,,,,,,,,,,,,,,,75000000.000000000,56.000000000,-1.457219797,13.436592231,1.098144075
1776351911.593573,,,,,,,,,,,593532007.000000000,1776351911.000000000,-1.284280213,13.767938809,0.000000000,,,,,
1776351911.593631,,,,,,593594796.000000000,1776351911.000000000,-1.349003120,13.493249021,0.000000000,,,,,,,,,,
1776351911.595539,,,,,,,,,,,,,,,,80000000.000000000,56.000000000,-1.443180608,13.492399539,1.098126709
1776351911.598593,,,,,,,,,,,598540968.000000000,1776351911.000000000,-1.269859493,13.794374053,0.000000000,,,,,
1776351911.598645,,,,,,598598087.000000000,1776351911.000000000,-1.337785442,13.531479301,0.000000000,,,,,,,,,,
1776351911.600763,,,,,,,,,,,,,,,,85000000.000000000,56.000000000,-1.428757404,13.545112740,1.098110051
1776351911.602857,80000000.000000000,56.000000000,-1.165348542,13.772796413,1.000000000,,,,,,,,,,,,,,,
1776351911.603582,,,,,,,,,,,603529624.000000000,1776351911.000000000,-1.238699810,13.850073723,0.000000000,,,,,
1776351911.603642,,,,,,603597081.000000000,1776351911.000000000,-1.298868114,13.625090532,0.000000000,,,,,,,,,,
1776351911.605855,,,,,,,,,,,,,,,,90000000.000000000,56.000000000,-1.413952105,13.594714620,1.098094127
1776351911.608571,,,,,,,,,,,608524170.000000000,1776351911.000000000,-1.202143475,13.910392957,0.000000000,,,,,
1776351911.608632,,,,,,608590935.000000000,1776351911.000000000,-1.264283843,13.703167760,0.000000000,,,,,,,,,,
1776351911.610644,,,,,,,,,,,,,,,,95000000.000000000,56.000000000,-1.398767840,13.641187560,1.098078965
1776351911.613597,,,,,,,,,,,613534243.000000000,1776351911.000000000,-1.165573937,13.964431212,0.000000000,,,,,
1776351911.613638,,,,,,613597683.000000000,1776351911.000000000,-1.233658768,13.767357004,0.000000000,,,,,,,,,,
1776351911.615600,,,,,,,,,,,,,,,,100000000.000000000,56.000000000,-1.383206578,13.684516266,1.098064586
1776351911.618602,,,,,,,,,,,618540539.000000000,1776351911.000000000,-1.131478699,14.007685956,0.000000000,,,,,
1776351911.618651,,,,,,618604740.000000000,1776351911.000000000,-1.206641702,13.819174346,0.000000000,,,,,,,,,,
1776351911.620575,,,,,,,,,,,,,,,,105000000.000000000,56.000000000,-1.367271569,13.724689373,1.098051004
1776351911.623605,,,,,,,,,,,623538511.000000000,1776351911.000000000,-1.100855757,14.039022489,0.000000000,,,,,
1776351911.623646,,,,,,623596621.000000000,1776351911.000000000,-1.182908765,13.860002856,0.000000000,,,,,,,,,,
1776351911.625597,,,,,,,,,,,,,,,,110000000.000000000,56.000000000,-1.350968986,13.761697326,1.098038223
1776351911.628578,,,,,,,,,,,628529761.000000000,1776351911.000000000,-1.074066832,14.058559856,0.000000000,,,,,
1776351911.628650,,,,,,628589735.000000000,1776351911.000000000,-1.162160578,13.891116511,0.000000000,,,,,,,,,,
1776351911.630534,,,,,,,,,,,,,,,,115000000.000000000,56.000000000,-1.334306102,13.795530767,1.098026250
1776351911.633574,,,,,,,,,,,633528444.000000000,1776351911.000000000,-1.050980765,14.067105963,0.000000000,,,,,
1776351911.633624,,,,,,633588688.000000000,1776351911.000000000,-1.144127417,13.913668258,0.000000000,,,,,,,,,,
1776351911.635609,,,,,,,,,,,,,,,,120000000.000000000,56.000000000,-1.317289094,13.826179277,1.098015094
1776351911.638579,,,,,,,,,,,638529782.000000000,1776351911.000000000,-1.031395429,14.065840068,0.000000000,,,,,
1776351911.638631,,,,,,638588193.000000000,1776351911.000000000,-1.128555444,13.928698130,0.000000000,,,,,,,,,,
1776351911.640994,,,,,,,,,,,,,,,,125000000.000000000,56.000000000,-1.299921588,13.853632959,1.098004768
1776351911.643593,,,,,,,,,,,643531250.000000000,1776351911.000000000,-1.015260210,14.055844117,0.000000000,,,,,
1776351911.643643,,,,,,643591995.000000000,1776351911.000000000,-1.115211128,13.937150480,0.000000000,,,,,,,,,,
1776351911.645782,120000000.000000000,56.000000000,-1.181337473,14.137822915,1.000000000,,,,,,,,,,,,,,,
1776351911.645802,,,,,,,,,,,,,,,,130000000.000000000,56.000000000,-1.282207781,13.877881971,1.097995286
1776351911.648565,,,,,,,,,,,648518904.000000000,1776351911.000000000,-1.003714072,14.074071872,0.000000000,,,,,
1776351911.648635,,,,,,648585980.000000000,1776351911.000000000,-1.106296287,13.994623111,0.000000000,,,,,,,,,,
1776351911.650776,,,,,,,,,,,,,,,,135000000.000000000,56.000000000,-1.264149621,13.898918633,1.097986656
1776351911.653573,,,,,,,,,,,653524248.000000000,1776351911.000000000,-0.995390795,14.099881454,0.000000000,,,,,
1776351911.653645,,,,,,653588099.000000000,1776351911.000000000,-1.098979894,14.041575491,0.000000000,,,,,,,,,,
1776351911.655588,,,,,,,,,,,,,,,,140000000.000000000,56.000000000,-1.245749587,13.916733282,1.097978895
1776351911.658601,,,,,,,,,,,658535133.000000000,1776351911.000000000,-0.989590537,14.123773534,0.000000000,,,,,
1776351911.658646,,,,,,658598132.000000000,1776351911.000000000,-1.093097308,14.079179699,0.000000000,,,,,,,,,,
1776351911.660598,,,,,,,,,,,,,,,,145000000.000000000,56.000000000,-1.227013861,13.931315646,1.097972021
1776351911.663591,,,,,,,,,,,663528116.000000000,1776351911.000000000,-0.985927769,14.141816055,0.000000000,,,,,
1776351911.663630,,,,,,663586617.000000000,1776351911.000000000,-1.088497710,14.108503717,0.000000000,,,,,,,,,,
1776351911.665834,,,,,,,,,,,,,,,,150000000.000000000,56.000000000,-1.207951611,13.942655044,1.097966059
1776351911.668588,,,,,,,,,,,668525867.000000000,1776351911.000000000,-0.984128857,14.152591732,0.000000000,,,,,
1776351911.668632,,,,,,668586422.000000000,1776351911.000000000,-1.085048936,14.130526588,0.000000000,,,,,,,,,,
1776351911.670637,,,,,,,,,,,,,,,,155000000.000000000,56.000000000,-1.188570557,13.950744365,1.097961021
1776351911.673576,,,,,,,,,,,673524851.000000000,1776351911.000000000,-0.983788885,14.156014473,0.000000000,,,,,
1776351911.673627,,,,,,673586808.000000000,1776351911.000000000,-1.082635223,14.146132864,0.000000000,,,,,,,,,,
1776351911.675529,,,,,,,,,,,,,,,,160000000.000000000,56.000000000,-1.168879670,13.955576515,1.097956920
1776351911.678586,,,,,,,,,,,678527130.000000000,1776351911.000000000,-0.984725852,14.152600379,0.000000000,,,,,
1776351911.678863,,,,,,678678723.000000000,1776351911.000000000,-1.081138785,14.156123528,0.000000000,,,,,,,,,,
1776351911.680780,,,,,,,,,,,,,,,,165000000.000000000,56.000000000,-1.148886653,13.957145920,1.097953767
1776351911.682837,160000000.000000000,56.000000000,-0.964597410,14.266270959,1.000000000,,,,,,,,,,,,,,,
1776351911.683572,,,,,,683533396.000000000,1776351911.000000000,-1.047941160,14.180491993,0.000000000,,,,,,,,,,
1776351911.683586,,,,,,,,,,,683519362.000000000,1776351911.000000000,-0.965678237,14.155449816,0.000000000,,,,,
1776351911.685474,,,,,,,,,,,,,,,,170000000.000000000,56.000000000,-1.128596695,13.955449610,1.097951568
1776351911.688563,,,,,,,,,,,688514739.000000000,1776351911.000000000,-0.939599085,14.158004074,0.000000000,,,,,
1776351911.688604,,,,,,688573431.000000000,1776351911.000000000,-1.018761730,14.198656290,0.000000000,,,,,,,,,,
1776351911.690585,,,,,,,,,,,,,,,,175000000.000000000,56.000000000,-1.108014977,13.950485136,1.097950326
1776351911.693569,,,,,,,,,,,693521727.000000000,1776351911.000000000,-0.912309199,14.157251599,0.000000000,,,,,
1776351911.693609,,,,,,693579687.000000000,1776351911.000000000,-0.993252055,14.211384409,0.000000000,,,,,,,,,,
1776351911.695565,,,,,,,,,,,,,,,,180000000.000000000,56.000000000,-1.087145968,13.942249767,1.097950049
1776351911.698582,,,,,,,,,,,698526651.000000000,1776351911.000000000,-0.886651233,14.152207134,0.000000000,,,,,
1776351911.698622,,,,,,698585072.000000000,1776351911.000000000,-0.971070100,14.219366267,0.000000000,,,,,,,,,,
1776351911.700680,,,,,,,,,,,,,,,,185000000.000000000,56.000000000,-1.065996746,13.930743468,1.097950736
1776351911.703586,,,,,,,,,,,703524262.000000000,1776351911.000000000,-0.863987338,14.142784993,0.000000000,,,,,
1776351911.703625,,,,,,703580549.000000000,1776351911.000000000,-0.951901259,14.223226793,0.000000000,,,,,,,,,,
1776351911.705672,,,,,,,,,,,,,,,,190000000.000000000,56.000000000,-1.044576249,13.915972535,1.097952367
1776351911.708565,,,,,,,,,,,708512477.000000000,1776351911.000000000,-0.844502345,14.129307266,0.000000000,,,,,
1776351911.708643,,,,,,708578942.000000000,1776351911.000000000,-0.935470256,14.223530214,0.000000000,,,,,,,,,,
1776351911.710518,,,,,,,,,,,,,,,,195000000.000000000,56.000000000,-1.022890600,13.897941839,1.097954927
1776351911.713562,,,,,,,,,,,713516940.000000000,1776351911.000000000,-0.828229719,14.112313860,0.000000000,,,,,
1776351911.713616,,,,,,713576253.000000000,1776351911.000000000,-0.921509042,14.220784455,0.000000000,,,,,,,,,,
1776351911.715634,,,,,,,,,,,,,,,,200000000.000000000,56.000000000,-1.000946010,13.876651717,1.097958418
1776351911.718564,,,,,,,,,,,718513690.000000000,1776351911.000000000,-0.815008642,14.092353296,0.000000000,,,,,
1776351911.718617,,,,,,718581517.000000000,1776351911.000000000,-0.909771966,14.215449997,0.000000000,,,,,,,,,,
1776351911.720612,,,,,,,,,,,,,,,,205000000.000000000,56.000000000,-0.978749207,13.852099048,1.097962856
1776351911.723384,200000000.000000000,56.000000000,-0.747617105,14.352151300,1.000000000,,,,,,,,,,,,,,,
1776351911.723764,,,,,,723575612.000000000,1776351911.000000000,-0.867486713,14.220823132,0.000000000,,,,,,,,,,
1776351911.723778,,,,,,,,,,,723512613.000000000,1776351911.000000000,-0.783566960,14.078295745,0.000000000,,,,,
1776351911.725589,,,,,,,,,,,,,,,,210000000.000000000,56.000000000,-0.956308840,13.824281201,1.097968256
1776351911.728565,,,,,,,,,,,728512689.000000000,1776351911.000000000,-0.746550191,14.065557399,0.000000000,,,,,
1776351911.728617,,,,,,728570168.000000000,1776351911.000000000,-0.830311163,14.223080834,0.000000000,,,,,,,,,,
1776351911.730494,,,,,,,,,,,,,,,,215000000.000000000,56.000000000,-0.933633089,13.793200100,1.097974623
1776351911.733562,,,,,,,,,,,733513556.000000000,1776351911.000000000,-0.709789064,14.052165680,0.000000000,,,,,
1776351911.733607,,,,,,733574281.000000000,1776351911.000000000,-0.797787267,14.222664314,0.000000000,,,,,,,,,,
1776351911.735628,,,,,,,,,,,,,,,,220000000.000000000,56.000000000,-0.910732211,13.758858071,1.097981957
1776351911.738577,,,,,,,,,,,738521385.000000000,1776351911.000000000,-0.675990143,14.037370772,0.000000000,,,,,
1776351911.738671,,,,,,738574967.000000000,1776351911.000000000,-0.769481110,14.219974187,0.000000000,,,,,,,,,,
1776351911.740674,,,,,,,,,,,,,,,,225000000.000000000,56.000000000,-0.887617628,13.721258606,1.097990261
1776351911.743636,,,,,,743576706.000000000,1776351911.000000000,-0.744993624,14.215370752,0.000000000,,,,,,,,,,
1776351911.743649,,,,,,,,,,,743516271.000000000,1776351911.000000000,-0.646317232,14.020959233,0.000000000,,,,,
1776351911.745636,,,,,,,,,,,,,,,,230000000.000000000,56.000000000,-0.864298387,13.680410857,1.097999519
1776351911.748580,,,,,,,,,,,748510246.000000000,1776351911.000000000,-0.621029117,14.003013592,0.000000000,,,,,
1776351911.748805,,,,,,748755891.000000000,1776351911.000000000,-0.723966125,14.209171253,0.000000000,,,,,,,,,,
1776351911.750652,,,,,,,,,,,,,,,,235000000.000000000,56.000000000,-0.840781699,13.636325790,1.098009710
1776351911.753581,,,,,,,,,,,753522723.000000000,1776351911.000000000,-0.599907098,13.983943617,0.000000000,,,,,
1776351911.753629,,,,,,753583568.000000000,1776351911.000000000,-0.706069313,14.201654220,0.000000000,,,,,,,,,,
1776351911.755753,,,,,,,,,,,,,,,,240000000.000000000,56.000000000,-0.817071341,13.589013797,1.098020819
1776351911.758566,,,,,,,,,,,758513262.000000000,1776351911.000000000,-0.582699540,13.964013507,0.000000000,,,,,
1776351911.758652,,,,,,758578014.000000000,1776351911.000000000,-0.690991618,14.193080878,0.000000000,,,,,,,,,,
1776351911.760638,,,,,,,,,,,,,,,,245000000.000000000,56.000000000,-0.793169638,13.538484890,1.098032833
1776351911.763604,,,,,,,,,,,763512436.000000000,1776351911.000000000,-0.569172744,13.943734895,0.000000000,,,,,
1776351911.763631,,,,,,763570687.000000000,1776351911.000000000,-0.678447356,14.183683923,0.000000000,,,,,,,,,,
1776351911.764311,240000000.000000000,56.000000000,-0.704723141,13.975741229,1.000000000,,,,,,,,,,,,,,,
1776351911.765558,,,,,,,,,,,,,,,,250000000.000000000,56.000000000,-0.769081918,13.484750159,1.098045735
1776351911.768551,,,,,,,,,,,768502184.000000000,1776351911.000000000,-0.554672516,13.886344508,0.000000000,,,,,
1776351911.768598,,,,,,768562468.000000000,1776351911.000000000,-0.661748544,14.117228630,0.000000000,,,,,,,,,,
1776351911.770562,,,,,,,,,,,,,,,,255000000.000000000,56.000000000,-0.744819188,13.427820820,1.098059512
1776351911.773561,,,,,,,,,,,773507668.000000000,1776351911.000000000,-0.541435849,13.814579834,0.000000000,,,,,
1776351911.773603,,,,,,773566640.000000000,1776351911.000000000,-0.647741428,14.056089854,0.000000000,,,,,,,,,,
1776351911.775455,,,,,,,,,,,,,,,,260000000.000000000,56.000000000,-0.720391453,13.367707843,1.098074149
1776351911.778564,,,,,,,,,,,778512272.000000000,1776351911.000000000,-0.530377852,13.739501583,0.000000000,,,,,
1776351911.778607,,,,,,778570192.000000000,1776351911.000000000,-0.636150779,13.999942537,0.000000000,,,,,,,,,,
1776351911.780529,,,,,,,,,,,,,,,,265000000.000000000,56.000000000,-0.695810199,13.304418493,1.098089646
1776351911.783569,,,,,,,,,,,783508450.000000000,1776351911.000000000,-0.521914177,13.666396214,0.000000000,,,,,
1776351911.783613,,,,,,783570037.000000000,1776351911.000000000,-0.626724553,13.948478817,0.000000000,,,,,,,,,,
1776351911.785638,,,,,,,,,,,,,,,,270000000.000000000,56.000000000,-0.671085969,13.237959589,1.098106007
1776351911.788560,,,,,,,,,,,788502325.000000000,1776351911.000000000,-0.515945454,13.597576849,0.000000000,,,,,
1776351911.788638,,,,,,788565825.000000000,1776351911.000000000,-0.619243417,13.901407714,0.000000000,,,,,,,,,,
1776351911.790566,,,,,,,,,,,,,,,,275000000.000000000,56.000000000,-0.646223267,13.168345829,1.098123214
1776351911.793568,,,,,,,,,,,793511817.000000000,1776351911.000000000,-0.512229433,13.534124990,0.000000000,,,,,
1776351911.793742,,,,,,793573724.000000000,1776351911.000000000,-0.613501997,13.858446110,0.000000000,,,,,,,,,,
1776351911.795827,,,,,,,,,,,,,,,,280000000.000000000,56.000000000,-0.621225598,13.095594690,1.098141240
1776351911.798566,,,,,,,,,,,798511622.000000000,1776351911.000000000,-0.510573884,13.476309125,0.000000000,,,,,
1776351911.798620,,,,,,798576474.000000000,1776351911.000000000,-0.609305196,13.819334023,0.000000000,,,,,,,,,,
1776351911.800493,,,,,,,,,,,,,,,,285000000.000000000,56.000000000,-0.596099216,13.019722081,1.098160066
1776351911.803667,,,,,,803598197.000000000,1776351911.000000000,-0.606475065,13.783825527,0.000000000,,,,,,,,,,
1776351911.803699,,,,,,,,,,,803629441.000000000,1776351911.000000000,-0.510865283,13.424157351,0.000000000,,,,,
1776351911.806520,,,,,,,,,,,,,,,,290000000.000000000,56.000000000,-0.570849085,12.940737280,1.098179692
1776351911.807420,280000000.000000000,56.000000000,-0.425227945,13.380296668,1.000000000,,,,,,,,,,,,,,,
1776351911.808548,,,,,,,,,,,808501014.000000000,1776351911.000000000,-0.485646826,13.319224545,0.000000000,,,,,
1776351911.808588,,,,,,808556050.000000000,1776351911.000000000,-0.562933978,13.662379208,0.000000000,,,,,,,,,,
1776351911.810574,,,,,,,,,,,,,,,,295000000.000000000,56.000000000,-0.545480408,12.858658098,1.098200097
1776351911.813550,,,,,,,,,,,813500198.000000000,1776351911.000000000,-0.451195206,13.196767397,0.000000000,,,,,
1776351911.813611,,,,,,813565491.000000000,1776351911.000000000,-0.524728942,13.553161136,0.000000000,,,,,,,,,,
1776351911.815422,,,,,,,,,,,,,,,,300000000.000000000,56.000000000,-0.520001758,12.773506077,1.098221247
1776351911.818549,,,,,,,,,,,818503109.000000000,1776351911.000000000,-0.415386271,13.073619058,0.000000000,,,,,
1776351911.818603,,,,,,818561540.000000000,1776351911.000000000,-0.491363453,13.455197482,0.000000000,,,,,,,,,,
1776351911.820496,,,,,,,,,,,,,,,,305000000.000000000,56.000000000,-0.494422783,12.685303656,1.098243107
1776351911.823563,,,,,,,,,,,823505328.000000000,1776351911.000000000,-0.381904770,12.957525098,0.000000000,,,,,
1776351911.823611,,,,,,823565622.000000000,1776351911.000000000,-0.462380902,13.367583957,0.000000000,,,,,,,,,,
1776351911.825620,,,,,,,,,,,,,,,,310000000.000000000,56.000000000,-0.468751881,12.594069539,1.098265656
1776351911.828543,,,,,,,,,,,828494364.000000000,1776351911.000000000,-0.352403257,12.851729160,0.000000000,,,,,
1776351911.828590,,,,,,828556482.000000000,1776351911.000000000,-0.437367895,13.289481697,0.000000000,,,,,,,,,,
1776351911.830414,,,,,,,,,,,,,,,,315000000.000000000,56.000000000,-0.442995316,12.499823383,1.098288873
1776351911.833552,,,,,,,,,,,833499949.000000000,1776351911.000000000,-0.327080824,12.757261771,0.000000000,,,,,
1776351911.833608,,,,,,833561656.000000000,1776351911.000000000,-0.415957989,13.220112509,0.000000000,,,,,,,,,,
1776351911.835763,,,,,,,,,,,,,,,,320000000.000000000,56.000000000,-0.417155563,12.402580479,1.098312751
1776351911.838562,,,,,,,,,,,838502559.000000000,1776351911.000000000,-0.305962031,12.674107251,0.000000000,,,,,
1776351911.838610,,,,,,838563324.000000000,1776351911.000000000,-0.397793673,13.158753787,0.000000000,,,,,,,,,,
1776351911.840772,,,,,,,,,,,,,,,,325000000.000000000,56.000000000,-0.391238451,12.302357812,1.098337280
1776351911.843351,320000000.000000000,56.000000000,-0.142772283,12.755857414,1.000000000,,,,,,,,,,,,,,,
1776351911.843535,,,,,,,,,,,843443753.000000000,1776351911.000000000,-0.261319334,12.540923311,0.000000000,,,,,
1776351911.843615,,,,,,843560795.000000000,1776351911.000000000,-0.340178815,13.011069695,0.000000000,,,,,,,,,,
1776351911.845644,,,,,,,,,,,,,,,,330000000.000000000,56.000000000,-0.365253930,12.199178332,1.098362432
1776351911.848560,,,,,,,,,,,848500116.000000000,1776351911.000000000,-0.209667428,12.394021897,0.000000000,,,,,
1776351911.848615,,,,,,848560741.000000000,1776351911.000000000,-0.289488993,12.879626547,0.000000000,,,,,,,,,,
1776351911.850585,,,,,,,,,,,,,,,,335000000.000000000,56.000000000,-0.339215400,12.093071649,1.098388160
1776351911.853552,,,,,,,,,,,853500762.000000000,1776351911.000000000,-0.158723669,12.250732435,0.000000000,,,,,
1776351911.853606,,,,,,853561087.000000000,1776351911.000000000,-0.245090148,12.763036621,0.000000000,,,,,,,,,,
1776351911.855883,,,,,,,,,,,,,,,,340000000.000000000,56.000000000,-0.313129205,11.984066634,1.098414423
1776351911.858567,,,,,,,,,,,858508691.000000000,1776351911.000000000,-0.111963580,12.118704037,0.000000000,,,,,
1776351911.858622,,,,,,858568575.000000000,1776351911.000000000,-0.206394132,12.660025856,0.000000000,,,,,,,,,,
1776351911.860725,,,,,,,,,,,,,,,,345000000.000000000,56.000000000,-0.286998281,11.872190902,1.098441182
1776351911.863546,,,,,,,,,,,863494682.000000000,1776351911.000000000,-0.070843921,12.000935864,0.000000000,,,,,
1776351911.863587,,,,,,863553444.000000000,1776351911.000000000,-0.172860172,12.569416330,0.000000000,,,,,,,,,,
1776351911.865573,,,,,,,,,,,,,,,,350000000.000000000,56.000000000,-0.260829711,11.757466002,1.098468423
1776351911.868555,,,,,,,,,,,868492514.000000000,1776351911.000000000,-0.035636567,11.898133217,0.000000000,,,,,
1776351911.868605,,,,,,868549643.000000000,1776351911.000000000,-0.144000303,12.490122902,0.000000000,,,,,,,,,,
1776351911.870480,,,,,,,,,,,,,,,,355000000.000000000,56.000000000,-0.234631843,11.639916145,1.098496122
1776351911.873553,,,,,,,,,,,873494563.000000000,1776351911.000000000,-0.006092580,11.809823801,0.000000000,,,,,
1776351911.873588,,,,,,873553705.000000000,1776351911.000000000,-0.119363751,12.421145675,0.000000000,,,,,,,,,,
1776351911.875704,,,,,,,,,,,,,,,,360000000.000000000,56.000000000,-0.208416014,11.519561563,1.098524267
1776351911.878548,,,,,,,,,,,878492575.000000000,1776351911.000000000,0.018149963,11.735147067,0.000000000,,,,,
1776351911.878598,,,,,,878553210.000000000,1776351911.000000000,-0.098529707,12.361555226,0.000000000,,,,,,,,,,
1776351911.880587,,,,,,,,,,,,,,,,365000000.000000000,56.000000000,-0.182193947,11.396422943,1.098552849
1776351911.883201,360000000.000000000,56.000000000,-0.053654718,11.882086031,1.000000000,,,,,,,,,,,,,,,
1776351911.883566,,,,,,,,,,,883497178.000000000,1776351911.000000000,0.046196961,11.587823031,0.000000000,,,,,
1776351911.883610,,,,,,883555569.000000000,1776351911.000000000,-0.067744781,12.179428375,0.000000000,,,,,,,,,,
1776351911.885518,,,,,,,,,,,,,,,,370000000.000000000,56.000000000,-0.155971529,11.270526549,1.098581839
1776351911.888535,,,,,,,,,,,888486325.000000000,1776351911.000000000,0.073207658,11.418862675,0.000000000,,,,,
1776351911.888584,,,,,,888549224.000000000,1776351911.000000000,-0.041384562,12.018354839,0.000000000,,,,,,,,,,
1776351911.890509,,,,,,,,,,,,,,,,375000000.000000000,56.000000000,-0.129752078,11.141904173,1.098611197
1776351911.893540,,,,,,,,,,,893490237.000000000,1776351911.000000000,0.097140408,11.252297985,0.000000000,,,,,
1776351911.893582,,,,,,893550181.000000000,1776351911.000000000,-0.019015072,11.876485838,0.000000000,,,,,,,,,,
1776351911.895424,,,,,,,,,,,,,,,,380000000.000000000,56.000000000,-0.103540140,11.010591288,1.098640875
1776351911.898551,,,,,,,,,,,898496183.000000000,1776351911.000000000,0.117219247,11.098926074,0.000000000,,,,,
1776351911.898581,,,,,,898551819.000000000,1776351911.000000000,-0.000233644,11.752111573,0.000000000,,,,,,,,,,
1776351911.900726,,,,,,,,,,,,,,,,385000000.000000000,56.000000000,-0.077340888,10.876624127,1.098670827
1776351911.903550,,,,,,,,,,,903492852.000000000,1776351911.000000000,0.133204455,10.962965523,0.000000000,,,,,
1776351911.903657,,,,,,903553327.000000000,1776351911.000000000,0.015328628,11.643654820,0.000000000,,,,,,,,,,
1776351911.905619,,,,,,,,,,,,,,,,390000000.000000000,56.000000000,-0.051156906,10.740035636,1.098701016
1776351911.908691,,,,,,908614688.000000000,1776351911.000000000,0.028000116,11.549658670,0.000000000,,,,,,,,,,
1776351911.908709,,,,,,,,,,,908487739.000000000,1776351911.000000000,0.145307581,10.845429033,0.000000000,,,,,
1776351911.910611,,,,,,,,,,,,,,,,395000000.000000000,56.000000000,-0.024997730,10.600856634,1.098731412
1776351911.913565,,,,,,,,,,,913500847.000000000,1776351911.000000000,0.153932111,10.745997573,0.000000000,,,,,
1776351911.913617,,,,,,913564938.000000000,1776351911.000000000,0.038083004,11.468775388,0.000000000,,,,,,,,,,
1776351911.915686,,,,,,,,,,,,,,,,400000000.000000000,56.000000000,0.001125392,10.459113805,1.098761997
1776351911.918537,,,,,,,,,,,918485486.000000000,1776351911.000000000,0.159405282,10.663550278,0.000000000,,,,,
1776351911.918598,,,,,,918555847.000000000,1776351911.000000000,0.045861923,11.399772818,0.000000000,,,,,,,,,,
1776351911.920573,,,,,,,,,,,,,,,,405000000.000000000,56.000000000,0.027201310,10.314834297,1.098792755
1776351911.923591,,,,,,,,,,,923487154.000000000,1776351911.000000000,0.161998443,10.596741907,0.000000000,,,,,
1776351911.923622,,,,,,923547318.000000000,1776351911.000000000,0.051596640,11.341517032,0.000000000,,,,,,,,,,
1776351911.923793,400000000.000000000,56.000000000,0.268984195,10.796425024,1.000000000,,,,,,,,,,,,,,,
1776351911.925521,,,,,,,,,,,,,,,,410000000.000000000,56.000000000,0.053219667,10.168054974,1.098823643
1776351911.928524,,,,,,,,,,,928480788.000000000,1776351911.000000000,0.193574560,10.438281490,0.000000000,,,,,
1776351911.928574,,,,,,928540542.000000000,1776351911.000000000,0.103913819,11.130118562,0.000000000,,,,,,,,,,
1776351911.930503,,,,,,,,,,,,,,,,415000000.000000000,56.000000000,0.079172656,10.018818402,1.098854608
1776351911.933532,,,,,,,,,,,933484680.000000000,1776351911.000000000,0.235244028,10.251384015,0.000000000,,,,,
1776351911.933573,,,,,,933542620.000000000,1776351911.000000000,0.149715550,10.944017373,0.000000000,,,,,,,,,,
1776351911.935435,,,,,,,,,,,,,,,,420000000.000000000,56.000000000,0.105057084,9.867161773,1.098885614
1776351911.938558,,,,,,,,,,,938493561.000000000,1776351911.000000000,0.278002905,10.065986834,0.000000000,,,,,
1776351911.938586,,,,,,938545771.000000000,1776351911.000000000,0.189613946,10.780936226,0.000000000,,,,,,,,,,
1776351911.940732,,,,,,,,,,,,,,,,425000000.000000000,56.000000000,0.130871492,9.713118490,1.098916633
1776351911.943542,,,,,,,,,,,943486464.000000000,1776351911.000000000,0.317687845,9.895446886,0.000000000,,,,,
1776351911.943580,,,,,,943542852.000000000,1776351911.000000000,0.224171627,10.638776160,0.000000000,,,,,,,,,,
1776351911.945695,,,,,,,,,,,,,,,,430000000.000000000,56.000000000,0.156613726,9.556724091,1.098947635
1776351911.948530,,,,,,,,,,,948478265.000000000,1776351911.000000000,0.352574473,9.745138969,0.000000000,,,,,
1776351911.948581,,,,,,948543568.000000000,1776351911.000000000,0.253899991,10.515596092,0.000000000,,,,,,,,,,
1776351911.950539,,,,,,,,,,,,,,,,435000000.000000000,56.000000000,0.182276286,9.398015655,1.098978586
1776351911.953625,,,,,,953566854.000000000,1776351911.000000000,0.279264001,10.409612170,0.000000000,,,,,,,,,,
1776351911.953761,,,,,,,,,,,953677916.000000000,1776351911.000000000,0.382298801,9.616502249,0.000000000,,,,,
1776351911.955711,,,,,,,,,,,,,,,,440000000.000000000,56.000000000,0.207853133,9.237025973,1.099009466
1776351911.958590,,,,,,,,,,,958502378.000000000,1776351911.000000000,0.406897152,9.509037140,0.000000000,,,,,
1776351911.958616,,,,,,958564505.000000000,1776351911.000000000,0.300700950,10.319188530,0.000000000,,,,,,,,,,
1776351911.960796,,,,,,,,,,,,,,,,445000000.000000000,56.000000000,0.233338322,9.073794530,1.099040238
1776351911.963225,440000000.000000000,56.000000000,0.380720963,9.667151723,1.000000000,,,,,,,,,,,,,,,
1776351911.963907,,,,,,,,,,,963484843.000000000,1776351911.000000000,0.437536441,9.311416354,0.000000000,,,,,
1776351911.964270,,,,,,964220356.000000000,1776351911.000000000,0.335372066,10.073430118,0.000000000,,,,,,,,,,
1776351911.965745,,,,,,,,,,,,,,,,450000000.000000000,56.000000000,0.258727050,8.908359884,1.099070870
1776351911.968525,,,,,,,,,,,968475312.000000000,1776351911.000000000,0.468128080,9.089113396,0.000000000,,,,,
1776351911.968572,,,,,,968536077.000000000,1776351911.000000000,0.365178388,9.857566324,0.000000000,,,,,,,,,,
1776351911.970652,,,,,,,,,,,,,,,,455000000.000000000,56.000000000,0.284014292,8.740764776,1.099101321
1776351911.973533,,,,,,,,,,,973481628.000000000,1776351911.000000000,0.495742143,8.872928069,0.000000000,,,,,
1776351911.973565,,,,,,973536813.000000000,1776351911.000000000,0.390609837,9.668874668,0.000000000,,,,,,,,,,
1776351911.975536,,,,,,,,,,,,,,,,460000000.000000000,56.000000000,0.309192594,8.571045324,1.099131568
1776351911.978539,,,,,,,,,,,978479169.000000000,1776351911.000000000,0.519316387,8.676447887,0.000000000,,,,,
1776351911.978609,,,,,,978540385.000000000,1776351911.000000000,0.412104766,9.504847523,0.000000000,,,,,,,,,,
1776351911.980447,,,,,,,,,,,,,,,,465000000.000000000,56.000000000,0.334252421,8.399240860,1.099161581
1776351911.983532,,,,,,,,,,,983476690.000000000,1776351911.000000000,0.538391323,8.504705677,0.000000000,,,,,
1776351911.983574,,,,,,983536273.000000000,1776351911.000000000,0.430064858,9.363176599,0.000000000,,,,,,,,,,
1776351911.985848,,,,,,,,,,,,,,,,470000000.000000000,56.000000000,0.359182652,8.225389077,1.099191337
1776351911.988515,,,,,,,,,,,988473750.000000000,1776351911.000000000,0.553263372,8.359025083,0.000000000,,,,,
1776351911.988569,,,,,,988533043.000000000,1776351911.000000000,0.444840235,9.241730230,0.000000000,,,,,,,,,,
1776351911.990544,,,,,,,,,,,,,,,,475000000.000000000,56.000000000,0.383976539,8.049530442,1.099220805
1776351911.993527,,,,,,,,,,,993479125.000000000,1776351911.000000000,0.564320266,8.238315710,0.000000000,,,,,
1776351911.993561,,,,,,993514296.000000000,1776351911.000000000,0.456762114,9.138571508,0.000000000,,,,,,,,,,
1776351911.995633,,,,,,,,,,,,,,,,480000000.000000000,56.000000000,0.408626148,7.871705638,1.099249959
1776351911.998616,,,,,,,,,,,998506568.000000000,1776351911.000000000,0.571901625,8.140876526,0.000000000,,,,,
1776351911.998674,,,,,,998564919.000000000,1776351911.000000000,0.466141539,9.051906131,0.000000000,,,,,,,,,,
1776351912.000638,,,,,,,,,,,,,,,,485000000.000000000,56.000000000,0.433125680,7.691958153,1.099278765
1776351912.003439,480000000.000000000,56.000000000,0.723490326,8.323308432,1.000000000,,,,,,,,,,,,,,,
1776351912.003544,,,,,,,,,,,3494783.000000000,1776351912.000000000,0.576420459,8.064550218,0.000000000,,,,,
1776351912.003677,,,,,,3620661.000000000,1776351912.000000000,0.524677852,8.778510470,0.000000000,,,,,,,,,,
1776351912.005751,,,,,,,,,,,,,,,,490000000.000000000,56.000000000,0.457476604,7.510333650,1.099307187
1776351912.008530,,,,,,,,,,,8468683.000000000,1776351912.000000000,0.611475941,7.876577767,0.000000000,,,,,
1776351912.008574,,,,,,8530109.000000000,1776351912.000000000,0.575992844,8.538925912,0.000000000,,,,,,,,,,
1776351912.010511,,,,,,,,,,,,,,,,495000000.000000000,56.000000000,0.481678529,7.326882593,1.099335183
1776351912.013514,,,,,,,,,,,13470902.000000000,1776351912.000000000,0.657157217,7.654730872,0.000000000,,,,,
1776351912.013570,,,,,,13533380.000000000,1776351912.000000000,0.620753820,8.330049976,0.000000000,,,,,,,,,,
1776351912.015558,,,,,,,,,,,,,,,,500000000.000000000,56.000000000,0.505724152,7.141647090,1.099362728
1776351912.018522,,,,,,,,,,,18473662.000000000,1776351912.000000000,0.703899569,7.435816774,0.000000000,,,,,
1776351912.018568,,,,,,18534017.000000000,1776351912.000000000,0.659583870,8.149016354,0.000000000,,,,,,,,,,
1776351912.020408,,,,,,,,,,,,,,,,505000000.000000000,56.000000000,0.529601529,6.954663460,1.099389812
1776351912.023517,,,,,,,,,,,23470282.000000000,1776351912.000000000,0.747361877,7.236177734,0.000000000,,,,,
1776351912.023566,,,,,,23530897.000000000,1776351912.000000000,0.693055363,7.993188317,0.000000000,,,,,,,,,,
1776351912.025530,,,,,,,,,,,,,,,,510000000.000000000,56.000000000,0.553300028,6.765969001,1.099416420
1776351912.028511,,,,,,,,,,,28465709.000000000,1776351912.000000000,0.785787067,7.062389119,0.000000000,,,,,
1776351912.028560,,,,,,28530611.000000000,1776351912.000000000,0.721694430,7.860135674,0.000000000,,,,,,,,,,
1776351912.030540,,,,,,,,,,,,,,,,515000000.000000000,56.000000000,0.576810697,6.575611483,1.099442518
1776351912.033521,,,,,,,,,,,33469481.000000000,1776351912.000000000,0.818609462,6.915847351,0.000000000,,,,,
1776351912.033756,,,,,,33534123.000000000,1776351912.000000000,0.745985603,7.747640872,0.000000000,,,,,,,,,,
1776351912.035591,,,,,,,,,,,,,,,,520000000.000000000,56.000000000,0.600131836,6.383643583,1.099468069
1776351912.038551,,,,,,,,,,,38485564.000000000,1776351912.000000000,0.845901151,6.795797113,0.000000000,,,,,
1776351912.038590,,,,,,38545829.000000000,1776351912.000000000,0.766370077,7.653659394,0.000000000,,,,,,,,,,
1776351912.040789,,,,,,,,,,,,,,,,525000000.000000000,56.000000000,0.623264445,6.190119976,1.099493032
1776351912.043547,,,,,,,,,,,43471124.000000000,1776351912.000000000,0.868020492,6.700352817,0.000000000,,,,,
1776351912.043581,,,,,,43533553.000000000,1776351912.000000000,0.783251899,7.576315849,0.000000000,,,,,,,,,,
1776351912.044654,520000000.000000000,56.000000000,0.855898826,6.936532871,1.000000000,,,,,,,,,,,,,,,
1776351912.046218,,,,,,,,,,,,,,,,530000000.000000000,56.000000000,0.646208165,5.995086858,1.099517385
1776351912.048523,,,,,,,,,,,48467443.000000000,1776351912.000000000,0.898191233,6.492243818,0.000000000,,,,,
1776351912.048577,,,,,,48535932.000000000,1776351912.000000000,0.816863763,7.305865672,0.000000000,,,,,,,,,,
1776351912.050489,,,,,,,,,,,,,,,,535000000.000000000,56.000000000,0.668959185,5.798593218,1.099541103
1776351912.053523,,,,,,,,,,,53468431.000000000,1776351912.000000000,0.929130815,6.251830710,0.000000000,,,,,
1776351912.053565,,,,,,53526912.000000000,1776351912.000000000,0.845655315,7.069885845,0.000000000,,,,,,,,,,
1776351912.055511,,,,,,,,,,,,,,,,540000000.000000000,56.000000000,0.691511146,5.600684953,1.099564167
1776351912.058519,,,,,,,,,,,58468636.000000000,1776351912.000000000,0.957478639,6.016842839,0.000000000,,,,,
1776351912.058554,,,,,,58524543.000000000,1776351912.000000000,0.870106593,6.865154218,0.000000000,,,,,,,,,,
1776351912.060566,,,,,,,,,,,,,,,,545000000.000000000,56.000000000,0.713862166,5.401407595,1.099586560
1776351912.063517,,,,,,,,,,,63466358.000000000,1776351912.000000000,0.981837644,5.804032709,0.000000000,,,,,
1776351912.063557,,,,,,63522465.000000000,1776351912.000000000,0.890657581,6.688707245,0.000000000,,,,,,,,,,
1776351912.065492,,,,,,,,,,,,,,,,550000000.000000000,56.000000000,0.736008682,5.200804878,1.099608267
1776351912.068507,,,,,,,,,,,68457848.000000000,1776351912.000000000,1.001882460,5.619667046,0.000000000,,,,,
1776351912.068553,,,,,,68520397.000000000,1776351912.000000000,0.907707846,6.537826599,0.000000000,,,,,,,,,,
1776351912.070687,,,,,,,,,,,,,,,,555000000.000000000,56.000000000,0.757946732,4.998929220,1.099629261
1776351912.073510,,,,,,,,,,,73462992.000000000,1776351912.000000000,1.017675049,5.465101793,0.000000000,,,,,
1776351912.073557,,,,,,73524379.000000000,1776351912.000000000,0.921627301,6.410009572,0.000000000,,,,,,,,,,
1776351912.075620,,,,,,,,,,,,,,,,560000000.000000000,56.000000000,0.779673478,4.795826432,1.099649528
1776351912.078557,,,,,,78491948.000000000,1776351912.000000000,0.932753346,6.302959205,0.000000000,,,,,,,,,,
1776351912.078582,,,,,,,,,,,78481169.000000000,1776351912.000000000,1.029498300,5.339342879,0.000000000,,,,,
1776351912.081336,,,,,,,,,,,,,,,,565000000.000000000,56.000000000,0.801183924,4.591541477,1.099669054
1776351912.083539,,,,,,,,,,,83469234.000000000,1776351912.000000000,1.037748061,5.240409843,0.000000000,,,,,
1776351912.083580,,,,,,83531842.000000000,1776351912.000000000,0.941394120,6.214568963,0.000000000,,,,,,,,,,
1776351912.084610,560000000.000000000,56.000000000,1.219990896,5.332614821,1.000000000,,,,,,,,,,,,,,,
1776351912.085823,,,,,,,,,,,,,,,,570000000.000000000,56.000000000,0.822471267,4.386116184,1.099687832
1776351912.088566,,,,,,88517222.000000000,1776351912.000000000,1.002447158,5.902324517,0.000000000,,,,,,,,,,
1776351912.088580,,,,,,,,,,,88515640.000000000,1776351912.000000000,1.078275902,5.009653524,0.000000000,,,,,
1776351912.090539,,,,,,,,,,,,,,,,575000000.000000000,56.000000000,0.843529917,4.179596693,1.099705846
1776351912.093518,,,,,,,,,,,93462753.000000000,1776351912.000000000,1.129774380,4.739885960,0.000000000,,,,,
1776351912.093567,,,,,,93526033.000000000,1776351912.000000000,1.056005789,5.629507215,0.000000000,,,,,,,,,,
1776351912.095568,,,,,,,,,,,,,,,,580000000.000000000,56.000000000,0.864352532,3.972027798,1.099723084
1776351912.098508,,,,,,,,,,,98462839.000000000,1776351912.000000000,1.182119558,4.474915231,0.000000000,,,,,
1776351912.098553,,,,,,98523123.000000000,1776351912.000000000,1.102771102,5.392434576,0.000000000,,,,,,,,,,
1776351912.100536,,,,,,,,,,,,,,,,585000000.000000000,56.000000000,0.884932736,3.763456999,1.099739532
1776351912.103505,,,,,,,,,,,103462203.000000000,1776351912.000000000,1.230831130,4.234160311,0.000000000,,,,,
1776351912.103544,,,,,,103517839.000000000,1776351912.000000000,1.143387598,5.187719816,0.000000000,,,,,,,,,,
1776351912.105424,,,,,,,,,,,,,,,,590000000.000000000,56.000000000,0.905265723,3.553934434,1.099755173
1776351912.108497,,,,,,,,,,,108453814.000000000,1776351912.000000000,1.273689324,4.025092237,0.000000000,,,,,
1776351912.108556,,,,,,108517013.000000000,1776351912.000000000,1.178456749,5.012247996,0.000000000,,,,,,,,,,
1776351912.110705,,,,,,,,,,,,,,,,595000000.000000000,56.000000000,0.925346212,3.343518287,1.099769985
1776351912.113503,,,,,,,,,,,113458297.000000000,1776351912.000000000,1.310430638,3.849418194,0.000000000,,,,,
1776351912.113548,,,,,,113519743.000000000,1776351912.000000000,1.208502636,4.863157984,0.000000000,,,,,,,,,,
1776351912.115619,,,,,,,,,,,,,,,,600000000.000000000,56.000000000,0.945168252,3.132261192,1.099783954
1776351912.118617,,,,,,,,,,,118482444.000000000,1776351912.000000000,1.341120945,3.706083955,0.000000000,,,,,
1776351912.118647,,,,,,118539553.000000000,1776351912.000000000,1.234025306,4.737826658,0.000000000,,,,,,,,,,
1776351912.120761,,,,,,,,,,,,,,,,605000000.000000000,56.000000000,0.964730469,2.920213553,1.099797070
1776351912.123517,,,,,,,,,,,123459790.000000000,1776351912.000000000,1.366163561,3.592933380,0.000000000,,,,,
1776351912.123558,,,,,,123516689.000000000,1776351912.000000000,1.255483090,4.633848438,0.000000000,,,,,,,,,,
1776351912.125275,600000000.000000000,56.000000000,1.370936505,3.685766533,1.000000000,,,,,,,,,,,,,,,
1776351912.125778,,,,,,,,,,,,,,,,610000000.000000000,56.000000000,0.984031588,2.707421186,1.099809328
1776351912.128507,,,,,,,,,,,128452904.000000000,1776351912.000000000,1.400727531,3.346617511,0.000000000,,,,,
1776351912.128560,,,,,,128515001.000000000,1776351912.000000000,1.295941048,4.301999543,0.000000000,,,,,,,,,,
1776351912.130503,,,,,,,,,,,,,,,,615000000.000000000,56.000000000,1.003073437,2.493932773,1.099820716
1776351912.133509,,,,,,,,,,,133456085.000000000,1776351912.000000000,1.436317224,3.062407182,0.000000000,,,,,
1776351912.133550,,,,,,133515437.000000000,1776351912.000000000,1.330842139,4.012389753,0.000000000,,,,,,,,,,
1776351912.135495,,,,,,,,,,,,,,,,620000000.000000000,56.000000000,1.021856004,2.279797933,1.099831226
1776351912.138509,,,,,,,,,,,138456611.000000000,1776351912.000000000,1.469098230,2.785026680,0.000000000,,,,,
1776351912.138554,,,,,,138515793.000000000,1776351912.000000000,1.360730891,3.761053560,0.000000000,,,,,,,,,,
1776351912.140592,,,,,,,,,,,,,,,,625000000.000000000,56.000000000,1.040375667,2.065066215,1.099840851
1776351912.143533,,,,,,,,,,,143461585.000000000,1776351912.000000000,1.497450496,2.534193917,0.000000000,,,,,
1776351912.143598,,,,,,143518273.000000000,1776351912.000000000,1.386106771,3.544344968,0.000000000,,,,,,,,,,
1776351912.145620,,,,,,,,,,,,,,,,630000000.000000000,56.000000000,1.058630661,1.849790627,1.099849580
1776351912.148512,,,,,,,,,,,148461720.000000000,1776351912.000000000,1.520899931,2.317314586,0.000000000,,,,,
1776351912.148556,,,,,,148515523.000000000,1776351912.000000000,1.407422507,3.358912714,0.000000000,,,,,,,,,,
1776351912.150533,,,,,,,,,,,,,,,,635000000.000000000,56.000000000,1.076616795,1.634025544,1.099857407
1776351912.153502,,,,,,,,,,,153454253.000000000,1776351912.000000000,1.539623278,2.136003565,0.000000000,,,,,
1776351912.153541,,,,,,153510971.000000000,1776351912.000000000,1.425090231,3.201675117,0.000000000,,,,,,,,,,
1776351912.155653,,,,,,,,,,,,,,,,640000000.000000000,56.000000000,1.094327134,1.417821839,1.099864329
1776351912.158518,,,,,,,,,,,158459187.000000000,1776351912.000000000,1.553910927,1.989001374,0.000000000,,,,,
1776351912.158561,,,,,,158521214.000000000,1776351912.000000000,1.439495381,3.069811399,0.000000000,,,,,,,,,,
1776351912.160731,,,,,,,,,,,,,,,,645000000.000000000,56.000000000,1.111757149,1.201225623,1.099870345
1776351912.163707,,,,,,163514938.000000000,1776351912.000000000,1.450990274,2.960735617,0.000000000,,,,,,,,,,
1776351912.163727,,,,,,,,,,,163458411.000000000,1776351912.000000000,1.564170911,1.873866433,0.000000000,,,,,
1776351912.163895,640000000.000000000,56.000000000,1.944113677,2.057938047,1.000000000,,,,,,,,,,,,,,,
1776351912.165560,,,,,,,,,,,,,,,,650000000.000000000,56.000000000,1.128901201,0.984278950,1.099875457
1776351912.168521,,,,,,,,,,,168459758.000000000,1776351912.000000000,1.626662492,1.629029821,0.000000000,,,,,
1776351912.168548,,,,,,168484441.000000000,1776351912.000000000,1.545874448,2.627906907,0.000000000,,,,,,,,,,
1776351912.170579,,,,,,,,,,,,,,,,655000000.000000000,56.000000000,1.145754784,0.767032681,1.099879659
1776351912.173495,,,,,,,,,,,173447613.000000000,1776351912.000000000,1.707715619,1.348331073,0.000000000,,,,,
1776351912.173548,,,,,,173511293.000000000,1776351912.000000000,1.629726409,2.338148056,0.000000000,,,,,,,,,,
1776351912.175562,,,,,,,,,,,,,,,,660000000.000000000,56.000000000,1.162319469,0.549537960,1.099882948
1776351912.178494,,,,,,,,,,,178446997.000000000,1776351912.000000000,1.791207838,1.075788741,0.000000000,,,,,
1776351912.178568,,,,,,178512300.000000000,1776351912.000000000,1.703551817,2.087380291,0.000000000,,,,,,,,,,
1776351912.180523,,,,,,,,,,,,,,,,665000000.000000000,56.000000000,1.178597235,0.331848522,1.099885318
1776351912.183495,,,,,,,,,,,183449286.000000000,1776351912.000000000,1.869790964,0.830775867,0.000000000,,,,,
1776351912.183551,,,,,,183511494.000000000,1776351912.000000000,1.768275547,1.871856892,0.000000000,,,,,,,,,,
1776351912.185488,,,,,,,,,,,,,,,,670000000.000000000,56.000000000,1.194582825,0.114017828,1.099886770
1776351912.188485,,,,,,,,,,,188442169.000000000,1776351912.000000000,1.940368619,0.620375994,0.000000000,,,,,
1776351912.188548,,,,,,188506881.000000000,1776351912.000000000,1.824751493,1.688142516,0.000000000,,,,,,,,,,
1776351912.190505,,,,,,,,,,,,,,,,675000000.000000000,56.000000000,1.210266230,-0.103901128,1.099887308
1776351912.193495,,,,,,,,,,,193446732.000000000,1776351912.000000000,2.001937261,0.445980073,0.000000000,,,,,
1776351912.193543,,,,,,193507097.000000000,1776351912.000000000,1.873763648,1.533076169,0.000000000,,,,,,,,,,
1776351912.195544,,,,,,,,,,,,,,,,680000000.000000000,56.000000000,1.225637655,-0.321860859,1.099886936
1776351912.198547,,,,,,,,,,,198463617.000000000,1776351912.000000000,2.054529214,0.306207193,0.000000000,,,,,
1776351912.198586,,,,,,198525955.000000000,1776351912.000000000,1.916029993,1.403761766,0.000000000,,,,,,,,,,
1776351912.201087,,,,,,,,,,,,,,,,685000000.000000000,56.000000000,1.240690675,-0.539816075,1.099885659
1776351912.202843,680000000.000000000,56.000000000,2.377938811,-0.446784042,1.000000000,,,,,,,,,,,,,,,
1776351912.203501,,,,,,,,,,,203443978.000000000,1776351912.000000000,2.140880997,-0.045530727,0.000000000,,,,,
1776351912.203701,,,,,,203505525.000000000,1776351912.000000000,2.017283496,0.921837423,0.000000000,,,,,,,,,,
1776351912.205979,,,,,,,,,,,,,,,,690000000.000000000,56.000000000,1.255421485,-0.757721219,1.099883480
1776351912.208486,,,,,,,,,,,208438664.000000000,1776351912.000000000,2.235817344,-0.463434282,0.000000000,,,,,
1776351912.208535,,,,,,208502846.000000000,1776351912.000000000,2.106439258,0.498772068,0.000000000,,,,,,,,,,
1776351912.210512,,,,,,,,,,,,,,,,695000000.000000000,56.000000000,1.269831475,-0.975524229,1.099880399
1776351912.213488,,,,,,,,,,,213442176.000000000,1776351912.000000000,2.327659434,-0.878252975,0.000000000,,,,,
1776351912.213536,,,,,,213504524.000000000,1776351912.000000000,2.184604256,0.129108167,0.000000000,,,,,,,,,,
1776351912.215643,,,,,,,,,,,,,,,,700000000.000000000,56.000000000,1.283922913,-1.193173521,1.099876418
1776351912.218490,,,,,,,,,,,218441630.000000000,1776351912.000000000,2.411252448,-1.259074474,0.000000000,,,,,
1776351912.218544,,,,,,218502416.000000000,1776351912.000000000,2.252803518,-0.192162587,0.000000000,,,,,,,,,,
1776351912.220446,,,,,,,,,,,,,,,,705000000.000000000,56.000000000,1.297697226,-1.410616542,1.099871539
1776351912.223480,,,,,,,,,,,223440574.000000000,1776351912.000000000,2.484710916,-1.593707767,0.000000000,,,,,
1776351912.223536,,,,,,223504875.000000000,1776351912.000000000,2.311979605,-0.469644879,0.000000000,,,,,,,,,,
1776351912.225500,,,,,,,,,,,,,,,,710000000.000000000,56.000000000,1.311155094,-1.627807193,1.099865768
1776351912.228479,,,,,,,,,,,228436542.000000000,1776351912.000000000,2.547703493,-1.879108607,0.000000000,,,,,
1776351912.228559,,,,,,228498850.000000000,1776351912.000000000,2.362999904,-0.707566113,0.000000000,,,,,,,,,,
1776351912.230412,,,,,,,,,,,,,,,,715000000.000000000,56.000000000,1.324296335,-1.844695422,1.099859109
1776351912.233481,,,,,,,,,,,233438641.000000000,1776351912.000000000,2.600614367,-2.116567194,0.000000000,,,,,
1776351912.233558,,,,,,233500378.000000000,1776351912.000000000,2.406660998,-0.909807572,0.000000000,,,,,,,,,,
1776351912.235621,,,,,,,,,,,,,,,,720000000.000000000,56.000000000,1.337119774,-2.061234794,1.099851565
1776351912.238556,,,,,,,,,,,238466595.000000000,1776351912.000000000,2.644166633,-2.309227369,0.000000000,,,,,
1776351912.238590,,,,,,238520909.000000000,1776351912.000000000,2.443692361,-1.079933955,0.000000000,,,,,,,,,,
1776351912.241172,,,,,,,,,,,,,,,,725000000.000000000,56.000000000,1.349620032,-2.277377728,1.099843143
1776351912.243523,,,,,,,,,,,243446996.000000000,1776351912.000000000,2.679048923,-2.460958441,0.000000000,,,,,
1776351912.243620,,,,,,243511708.000000000,1776351912.000000000,2.474762862,-1.221213116,0.000000000,,,,,,,,,,
1776351912.245758,720000000.000000000,56.000000000,1.891981214,-2.183193302,1.000000000,,,,,,,,,,,,,,,
1776351912.246165,,,,,,,,,,,,,,,,730000000.000000000,56.000000000,1.361791738,-2.493077838,1.099833849
1776351912.248489,,,,,,,,,,,248435992.000000000,1776351912.000000000,2.659085032,-2.744982756,0.000000000,,,,,
1776351912.248536,,,,,,248496868.000000000,1776351912.000000000,2.427579449,-1.597098554,0.000000000,,,,,,,,,,
1776351912.250624,,,,,,,,,,,,,,,,735000000.000000000,56.000000000,1.373632145,-2.708281599,1.099823689
1776351912.253500,,,,,,,,,,,253441267.000000000,1776351912.000000000,2.613797985,-3.062012460,0.000000000,,,,,
1776351912.253530,,,,,,253500429.000000000,1776351912.000000000,2.383019847,-1.923391953,0.000000000,,,,,,,,,,
1776351912.255682,,,,,,,,,,,,,,,,740000000.000000000,56.000000000,1.385138543,-2.922934716,1.099812676
1776351912.258490,,,,,,,,,,,258438628.000000000,1776351912.000000000,2.557961193,-3.365760478,0.000000000,,,,,
1776351912.258532,,,,,,258497850.000000000,1776351912.000000000,2.340971512,-2.204833225,0.000000000,,,,,,,,,,
1776351912.260561,,,,,,,,,,,,,,,,745000000.000000000,56.000000000,1.396311023,-3.136984705,1.099800821
1776351912.263488,,,,,,,,,,,263438803.000000000,1776351912.000000000,2.498765398,-3.636205534,0.000000000,,,,,
1776351912.263533,,,,,,263496613.000000000,1776351912.000000000,2.301325002,-2.445776251,0.000000000,,,,,,,,,,
1776351912.265437,,,,,,,,,,,,,,,,750000000.000000000,56.000000000,1.407149354,-3.350386278,1.099788133
1776351912.268476,,,,,,,,,,,268435193.000000000,1776351912.000000000,2.439780530,-3.866145581,0.000000000,,,,,
1776351912.268523,,,,,,268494946.000000000,1776351912.000000000,2.263965957,-2.650218502,0.000000000,,,,,,,,,,
1776351912.270561,,,,,,,,,,,,,,,,755000000.000000000,56.000000000,1.417652139,-3.563089124,1.099774624
1776351912.273474,,,,,,,,,,,273434116.000000000,1776351912.000000000,2.382789848,-4.054610231,0.000000000,,,,,
1776351912.273520,,,,,,273493829.000000000,1776351912.000000000,2.228784558,-2.821824208,0.000000000,,,,,,,,,,
1776351912.275555,,,,,,,,,,,,,,,,760000000.000000000,56.000000000,1.427818171,-3.775045901,1.099760303
1776351912.278513,,,,,,,,,,,278447895.000000000,1776351912.000000000,2.328526316,-4.203476269,0.000000000,,,,,
1776351912.278546,,,,,,278509832.000000000,1776351912.000000000,2.195683184,-2.963952710,0.000000000,,,,,,,,,,
1776351912.280918,,,,,,,,,,,,,,,,765000000.000000000,56.000000000,1.437645673,-3.986209687,1.099745182
1776351912.283545,,,,,,,,,,,283441129.000000000,1776351912.000000000,2.277262897,-4.315802918,0.000000000,,,,,
1776351912.283950,760000000.000000000,56.000000000,1.824981534,-3.871499566,1.000000000,,,,,,,,,,,,,,,
1776351912.283965,,,,,,283519865.000000000,1776351912.000000000,2.164567193,-3.079680169,0.000000000,,,,,,,,,,
1776351912.285921,,,,,,,,,,,,,,,,770000000.000000000,56.000000000,1.447127988,-4.196530909,1.099729274
1776351912.288489,,,,,,,,,,,288430766.000000000,1776351912.000000000,2.222547702,-4.559754820,0.000000000,,,,,
1776351912.288555,,,,,,288491852.000000000,1776351912.000000000,2.125294213,-3.425063372,0.000000000,,,,,,,,,,
1776351912.290473,,,,,,,,,,,,,,,,775000000.000000000,56.000000000,1.456263939,-4.405957135,1.099712596
1776351912.293478,,,,,,,,,,,293430381.000000000,1776351912.000000000,2.168309982,-4.838359141,0.000000000,,,,,
1776351912.293525,,,,,,293491457.000000000,1776351912.000000000,2.088847578,-3.723696554,0.000000000,,,,,,,,,,
1776351912.295612,,,,,,,,,,,,,,,,780000000.000000000,56.000000000,1.465056716,-4.614441482,1.099695161
1776351912.298478,,,,,,,,,,,298430056.000000000,1776351912.000000000,2.116380183,-5.106412948,0.000000000,,,,,
1776351912.298541,,,,,,298496020.000000000,1776351912.000000000,2.055055437,-3.980100822,0.000000000,,,,,,,,,,
1776351912.300458,,,,,,,,,,,,,,,,785000000.000000000,56.000000000,1.473511597,-4.821937754,1.099676980
1776351912.303482,,,,,,,,,,,303431283.000000000,1776351912.000000000,2.067553967,-5.344178980,0.000000000,,,,,
1776351912.303513,,,,,,303465753.000000000,1776351912.000000000,2.023755425,-4.198426569,0.000000000,,,,,,,,,,
1776351912.305686,,,,,,,,,,,,,,,,790000000.000000000,56.000000000,1.481625010,-5.028402399,1.099658064
1776351912.308471,,,,,,,,,,,308427241.000000000,1776351912.000000000,2.022093963,-5.544675818,0.000000000,,,,,
1776351912.308520,,,,,,308487726.000000000,1776351912.000000000,1.994795111,-4.382473408,0.000000000,,,,,,,,,,
1776351912.310538,,,,,,,,,,,,,,,,795000000.000000000,56.000000000,1.489390565,-5.233790130,1.099638425
1776351912.313476,,,,,,,,,,,313429501.000000000,1776351912.000000000,1.980011504,-5.706758515,0.000000000,,,,,
1776351912.313525,,,,,,313491588.000000000,1776351912.000000000,1.968030121,-4.535734724,0.000000000,,,,,,,,,,
1776351912.315674,,,,,,,,,,,,,,,,800000000.000000000,56.000000000,1.496801743,-5.438057759,1.099618075
1776351912.318571,,,,,,,,,,,318449491.000000000,1776351912.000000000,1.941207970,-5.832127104,0.000000000,,,,,
1776351912.318628,,,,,,318512189.000000000,1776351912.000000000,1.943323512,-4.661407128,0.000000000,,,,,,,,,,
1776351912.320999,,,,,,,,,,,,,,,,805000000.000000000,56.000000000,1.503851919,-5.641155692,1.099597034
1776351912.323446,800000000.000000000,56.000000000,1.753331111,-5.539359252,1.000000000,,,,,,,,,,,,,,,
1776351912.323568,,,,,,323501326.000000000,1776351912.000000000,1.920546038,-4.762415626,0.000000000,,,,,,,,,,
1776351912.323582,,,,,,,,,,,323447533.000000000,1776351912.000000000,1.905557913,-5.923689229,0.000000000,,,,,
1776351912.325930,,,,,,,,,,,,,,,,810000000.000000000,56.000000000,1.510536019,-5.843033935,1.099575321
1776351912.328474,,,,,,,,,,,328422164.000000000,1776351912.000000000,1.865886801,-6.147216040,0.000000000,,,,,
1776351912.328557,,,,,,328483530.000000000,1776351912.000000000,1.888830444,-5.091613865,0.000000000,,,,,,,,,,
1776351912.330501,,,,,,,,,,,,,,,,815000000.000000000,56.000000000,1.516856341,-6.043641916,1.099552958
1776351912.333467,,,,,,,,,,,333425505.000000000,1776351912.000000000,1.826265583,-6.406920360,0.000000000,,,,,
1776351912.333522,,,,,,333487242.000000000,1776351912.000000000,1.859902406,-5.375832588,0.000000000,,,,,,,,,,
1776351912.335635,,,,,,,,,,,,,,,,820000000.000000000,56.000000000,1.522819934,-6.242932751,1.099529963
1776351912.338471,,,,,,,,,,,338426713.000000000,1776351912.000000000,1.788585692,-6.657981864,0.000000000,,,,,
1776351912.338527,,,,,,338489171.000000000,1776351912.000000000,1.833560757,-5.619446853,0.000000000,,,,,,,,,,
1776351912.340563,,,,,,,,,,,,,,,,825000000.000000000,56.000000000,1.528429863,-6.440863851,1.099506350
1776351912.343472,,,,,,,,,,,343424654.000000000,1776351912.000000000,1.753504838,-6.880897847,0.000000000,,,,,
1776351912.343529,,,,,,343487744.000000000,1776351912.000000000,1.809617560,-5.826471656,0.000000000,,,,,,,,,,
1776351912.345481,,,,,,,,,,,,,,,,830000000.000000000,56.000000000,1.533681442,-6.637392783,1.099482133
1776351912.348465,,,,,,,,,,,348422286.000000000,1776351912.000000000,1.721566615,-7.068323187,0.000000000,,,,,
1776351912.348511,,,,,,348481208.000000000,1776351912.000000000,1.787885292,-6.000593162,0.000000000,,,,,,,,,,
1776351912.350537,,,,,,,,,,,,,,,,835000000.000000000,56.000000000,1.538567007,-6.832475039,1.099457330
1776351912.353477,,,,,,,,,,,353427921.000000000,1776351912.000000000,1.692634542,-7.219194777,0.000000000,,,,,
1776351912.353523,,,,,,353483447.000000000,1776351912.000000000,1.768210462,-6.145174838,0.000000000,,,,,,,,,,
1776351912.355576,,,,,,,,,,,,,,,,840000000.000000000,56.000000000,1.543086260,-7.026065764,1.099431959
1776351912.358614,,,,,,,,,,,358456295.000000000,1776351912.000000000,1.666601302,-7.335067760,0.000000000,,,,,
1776351912.358670,,,,,,358529522.000000000,1776351912.000000000,1.750440411,-6.263305857,0.000000000,,,,,,,,,,
1776351912.360892,,,,,,,,,,,,,,,,845000000.000000000,56.000000000,1.547240505,-7.218117128,1.099406043
1776351912.363459,,,,,,,,,,,363388854.000000000,1776351912.000000000,1.643268582,-7.418630739,0.000000000,,,,,
1776351912.363539,,,,,,363490820.000000000,1776351912.000000000,1.734432663,-6.357811802,0.000000000,,,,,,,,,,
1776351912.363945,840000000.000000000,56.000000000,1.890398930,-7.156227069,1.000000000,,,,,,,,,,,,,,,
1776351912.365880,,,,,,,,,,,,,,,,850000000.000000000,56.000000000,1.551030553,-7.408582969,1.099379603
1776351912.368471,,,,,,,,,,,368417288.000000000,1776351912.000000000,1.635910518,-7.630784510,0.000000000,,,,,
1776351912.368514,,,,,,368477753.000000000,1776351912.000000000,1.740611448,-6.673799425,0.000000000,,,,,,,,,,
1776351912.370708,,,,,,,,,,,,,,,,855000000.000000000,56.000000000,1.554462158,-7.597418226,1.099352663
1776351912.373474,,,,,,,,,,,373422002.000000000,1776351912.000000000,1.636115827,-7.878452657,0.000000000,,,,,
1776351912.373521,,,,,,373483979.000000000,1776351912.000000000,1.746208058,-6.946453978,0.000000000,,,,,,,,,,
1776351912.375589,,,,,,,,,,,,,,,,860000000.000000000,56.000000000,1.557539672,-7.784579176,1.099325239
1776351912.378479,,,,,,,,,,,378425263.000000000,1776351912.000000000,1.639762879,-8.118175300,0.000000000,,,,,
1776351912.378521,,,,,,378482462.000000000,1776351912.000000000,1.751282975,-7.180005317,0.000000000,,,,,,,,,,
1776351912.380517,,,,,,,,,,,,,,,,865000000.000000000,56.000000000,1.560265192,-7.970021017,1.099297355
1776351912.383472,,,,,,,,,,,383418867.000000000,1776351912.000000000,1.644861179,-8.330907329,0.000000000,,,,,
1776351912.383512,,,,,,383478230.000000000,1776351912.000000000,1.755891201,-7.378334318,0.000000000,,,,,,,,,,
1776351912.385526,,,,,,,,,,,,,,,,870000000.000000000,56.000000000,1.562633587,-8.153701236,1.099269036
1776351912.388454,,,,,,,,,,,388411339.000000000,1776351912.000000000,1.650304523,-8.509624631,0.000000000,,,,,
1776351912.388503,,,,,,388473717.000000000,1776351912.000000000,1.760085370,-7.544992884,0.000000000,,,,,,,,,,
1776351912.390516,,,,,,,,,,,,,,,,875000000.000000000,56.000000000,1.564643973,-8.335576337,1.099240305
1776351912.393471,,,,,,,,,,,393420711.000000000,1776351912.000000000,1.655750059,-8.653301395,0.000000000,,,,,
1776351912.393514,,,,,,393481757.000000000,1776351912.000000000,1.763902843,-7.683229224,0.000000000,,,,,,,,,,
1776351912.396102,,,,,,,,,,,,,,,,880000000.000000000,56.000000000,1.566293559,-8.515605878,1.099211183
1776351912.398527,,,,,,,,,,,398443145.000000000,1776351912.000000000,1.660986853,-8.763413567,0.000000000,,,,,
